aa,onoma,long,lat
1,ΓΥΜΝΑΣΙΟ ΒΑΡΘΟΛΟΜΙΟΥ ΜΟΥΣΙΚΟ,21.207899,37.860054
2,ΓΥΜΝΑΣΙΟ ΚΕΡΑΜΙΔΙΑΣ,21.46153,37.851509
3,ΔΗΜΟΤΙΚΟ ΣΧΟΛΕΙΟ ΔΑΦΝΗΣ ΚΑΛΑΒΡΥΤΩΝ,,
4,ΓΥΜΝΑΣΙΟ ΚΑΡΑΤΟΥΛΑ,21.537596,37.734251
5,ΔΗΜΟΤΙΚΟ ΣΧΟΛΕΙΟ ΜΥΤΙΚΑ,20.945659,38.66767
6,1ο ΓΥΜΝΑΣΙΟ ΠΥΡΓΟΥ,21.437116,37.675261
7,2ο ΓΥΜΝΑΣΙΟ ΠΥΡΓΟΥ,21.431099,37.673528
8,ΓΥΜΝΑΣΙΟ ΣΙΜΟΠΟΥΛΟΥ,21.572047,37.849805
9,ΓΥΜΝΑΣΙΟ ΑΝΔΡΑΒΙΔΑΣ,21.270202,37.90619
10,ΓΥΜΝΑΣΙΟ ΒΑΡΔΑΣ,21.365354,38.031541
11,ΓΥΜΝΑΣΙΟ ΛΕΧΑΙΝΩΝ,21.26249,37.937023
12,ΔΗΜΟΤΙΚΟ ΣΧΟΛΕΙΟ ΑΘΑΝΑΣΙΟΥ ΔΙΑΚΟΥ,22.176548,38.696141
13,1ο ΓΥΜΝΑΣΙΟ ΑΜΑΛΙΑΔΑΣ,21.352591,37.794212
14,ΓΥΜΝΑΣΙΟ ΤΡΑΓΑΝΟΥ ΗΛΕΙΑΣ,21.316525,37.896847
15,ΓΥΜΝΑΣΙΟ ΑΙΤΩΛΙΚΟΥ,21.319359,38.427731
16,2ο ΓΥΜΝΑΣΙΟ ΠΑΤΡΑΣ ΕΣΠΕΡΙΝΟ,,
17,ΑΡΣΑΚΕΙΟ ΓΥΜΑΣΙΟ ΠΑΤΡΑΣ,,
18,ΓΥΜΝΑΣΙΟ ΕΦΥΡΑΣ ΗΛΕΙΑΣ,21.518517,37.855628
19,ΓΥΜΝΑΣΙΟ ΔΙΑΚΟΠΤΟΥ,22.200553,38.188714
20,17ο ΓΥΜΝΑΣΙΟ ΠΑΤΡΑΣ,21.750349,38.231813
21,ΓΥΜΝΑΣΙΟ ΑΚΡΑΤΑΣ,22.315972,38.152904
22,ΓΥΜΝΑΣΙΟ ΚΑΤΩ ΑΧΑΙΑΣ,21.54315,38.142529
23,ΔΗΜΟΤΙΚΟ ΣΧΟΛΕΙΟ ΓΑΡΕΦΕΙΟΥ,22.045278,41.029712
24,21ο ΓΥΜΝΑΣΙΟ ΠΑΤΡΑΣ,21.746032,38.260709
25,ΓΥΜΝΑΣΙΟ ΧΑΛΑΝΔΡΙΤΣΑΣ,21.783951,38.107307
26,ΓΥΜΝΑΣΙΟ ΛΕΠΕΝΟΥΣ,21.291668,38.709161
27,ΓΥΜΝΑΣΙΟ ΜΥΡΤΙΑΣ ΣΚΟΥΡΟΧΩΡΙΟΥ,21.352724,37.711202
28,3ο ΓΥΜΝΑΣΙΟ ΠΥΡΓΟΥ,21.431547,37.666815
29,ΓΥΜΝΑΣΙΟ ΒΟΥΝΑΡΓΟΥ,21.411405,37.735016
30,1ο ΔΗΜΟΤΙΚΟ ΣΧΟΛΕΙΟ ΑΝΑΤΟΛΙΚΟΥ ΣΕΛΙΝΟΥ-ΡΟΔΟΒΑΝΙΟΥ,23.826771,35.322605
31,ΓΥΜΝΑΣΙΟ ΕΠΙΤΑΛΙΟΥ ΗΛΕΙΑΣ,21.496194,37.625588
32,ΓΥΜΝΑΣΙΟ ΛΑΚΚΟΠΕΤΡΑΣ,21.453844,38.167951
33,ΔΗΜΟΤΙΚΟ ΣΧΟΛΕΙΟ ΝΕΔΑΣ ΜΕΙΟΝΟΤΙΚΟ,,
34,ΓΥΜΝΑΣΙΟ ΒΡΑΧΝΕΙΚΩΝ ΠΑΤΡΑΣ,21.670538,38.16074
35,ΓΥΜΝΑΣΙΟ ΑΙΓΕΙΡΑΣ,22.351261,38.147115
36,ΓΥΜΝΑΣΙΟ ΟΒΡΥΑΣ ΠΑΤΡΑΣ,21.723058,38.18541
37,ΔΗΜΟΤΙΚΟ ΣΧΟΛΕΙΟ ΒΕΛΚΙΟΥ ΜΕΙΟΝΟΤΙΚΟ,,
38,ΓΥΜΝΑΣΙΟ ΣΑΓΕΙΚΩΝ ΑΧΑΙΑΣ,21.47192,38.105883
39,ΓΥΜΝΑΣΙΟ ΛΟΥΣΙΚΩΝ ΑΧΑΙΑΣ,21.594508,38.108892
40,ΓΥΜΝΑΣΙΟ ΡΙΟΥ,21.782765,38.300414
41,20ο ΓΥΜΝΑΣΙΟ ΠΑΤΡΑΣ,21.761915,38.221588
42,16ο ΓΥΜΝΑΣΙΟ ΠΑΤΡΑΣ,21.762157,38.273161
43,18ο ΓΥΜΝΑΣΙΟ ΠΑΤΡΑΣ,21.752168,38.224298
44,1ο ΓΥΜΝΑΣΙΟ ΠΑΡΑΛΙΑΣ ΠΑΤΡΑΣ,21.702631,38.197157
45,22ο ΓΥΜΝΑΣΙΟ ΠΑΤΡΑΣ,21.734605,38.225916
46,ΓΥΜΝΑΣΙΟ ΛΑΠΠΑ ΑΧΑΙΑΣ,21.402308,38.126268
47,ΓΥΜΝΑΣΙΟ ΑΓ ΒΑΣΙΛΕΙΟΥ,21.818473,38.311927
48,4ο ΓΥΜΝΑΣΙΟ ΑΙΓΙΟΥ,22.08813,38.244013
49,ΓΥΜΝΑΣΙΟ ΑΙΓΙΟΥ ΕΣΠΕΡΙΝΟ,22.072968,38.247035
50,3ο ΓΥΜΝΑΣΙΟ ΑΙΓΙΟΥ,22.074517,38.247176
51,ΓΥΜΝΑΣΙΟ ΠΑΤΡΑΣ ΠΕΙΡΑΜΑΤΙΚΟ ΠΑΝΕΠΙΣΤΗΜΙΟΥ ΠΑΤΡΑΣ,21.752236,38.259725
52,8ο ΓΥΜΝΑΣΙΟ ΠΑΤΡΑΣ,21.736666,38.230464
53,14ο ΓΥΜΝΑΣΙΟ ΠΑΤΡΑΣ,21.733635,38.250877
54,6ο ΓΥΜΝΑΣΙΟ ΠΑΤΡΑΣ,21.737586,38.254426
55,7ο ΓΥΜΝΑΣΙΟ ΠΑΤΡΑΣ,21.731654,38.237003
56,ΓΥΜΝΑΣΙΟ ΠΑΤΡΑΣ ΕΣΠΕΡΙΝΟ,21.735016,38.246016
57,ΓΥΜΝΑΣΙΟ ΚΑΜΑΡΩΝ ΑΧΑΙΑΣ,22.004081,38.299662
58,1ο ΓΥΜΝΑΣΙΟ ΠΑΤΡΑΣ,21.737544,38.254548
59,4ο ΓΥΜΝΑΣΙΟ ΠΥΡΓΟΥ,21.440605,37.664304
60,19ο ΓΥΜΝΑΣΙΟ ΠΑΤΡΑΣ,21.719914,38.212496
61,ΓΥΜΝΑΣΙΟ ΑΝΔΡΙΤΣΑΙΝΗΣ,21.907002,37.484598
62,ΓΥΜΝΑΣΙΟ ΖΑΧΑΡΩΣ,21.651403,37.485198
63,ΓΥΜΝΑΣΙΟ ΚΑΒΑΣΙΛΩΝ,21.267223,37.87576
64,ΓΥΜΝΑΣΙΟ ΑΜΑΛΙΑΔΑΣ ΕΣΠΕΡΙΝΟ,21.352591,37.794212
65,ΓΥΜΝΑΣΙΟ ΑΡΧΑΙΑΣ ΟΛΥΜΠΙΑΣ,21.627347,37.643048
66,ΓΥΜΝΑΣΙΟ ΧΑΒΑΡΙΟΥ ΗΛΕΙΑΣ,21.384307,37.841926
67,ΓΥΜΝΑΣΙΟ ΒΑΣΙΛΑΚΙΟΥ,21.763542,37.64918
68,ΔΗΜΟΤΙΚΟ ΣΧΟΛΕΙΟ ΠΛΑΤΗΣ ΟΡΕΣΤΙΑΔΑΣ,26.335512,41.627304
69,5ο ΓΥΜΝΑΣΙΟ ΠΑΤΡΑΣ,21.743396,38.235282
70,ΔΗΜΟΤΙΚΟ ΣΧΟΛΕΙΟ ΣΚΑΛΩΜΑΤΟΣ ΜΕΙΟΝΟΤΙΚΟ,,
71,ΓΥΜΝΑΣΙΟ ΕΡΥΜΑΝΘΕΙΑΣ,21.726656,37.980855
72,ΓΥΜΝΑΣΙΟ ΠΥΡΓΟΥ ΕΣΠΕΡΙΝΟ,21.431987,37.673709
73,ΓΥΜΝΑΣΙΟ ΣΑΡΑΒΑΛΙΟΥ,21.760574,38.189602
74,ΓΥΜΝΑΣΙΟ ΚΑΛΑΒΡΥΤΩΝ,22.112588,38.029761
75,13ο ΓΥΜΝΑΣΙΟ ΠΑΤΡΑΣ,21.753988,38.272891
76,15ο ΓΥΜΝΑΣΙΟ ΠΑΤΡΑΣ,21.752426,38.259639
77,ΓΥΜΝΑΣΙΟ ΝΕΟΧΩΡΙΟΥ ΗΛΕΙΑΣ,21.660071,37.434183
78,ΔΗΜΟΤΙΚΟ ΣΧΟΛΕΙΟ ΔΕΙΛΙΝΩΝ ΜΕΙΟΝΟΤΙΚΟ,,
79,ΔΗΜΟΤΙΚΟ ΣΧΟΛΕΙΟ ΣΙΔΗΡΟΥΣ ΜΕΙΟΝΟΤΙΚΟ,,
80,ΓΥΜΝΑΣΙΟ ΜΑΚΡΙΣΙΩΝ ΗΛΕΙΑΣ,21.606101,37.608133
81,ΓΥΜΝΑΣΙΟ ΚΡΕΣΤΕΝΩΝ,21.622652,37.593503
82,ΓΥΜΝΑΣΙΟ ΒΑΡΘΟΛΟΜΙΟΥ,21.207899,37.860054
83,ΔΗΜΟΤΙΚΟ ΣΧΟΛΕΙΟ ΑΓΡΙΑΝΗΣ ΜΕΙΟΝΟΤΙΚΟ,,
84,ΓΥΜΝΑΣΙΟ ΠΕΛΟΠΙΟΥ,21.594364,37.676214
85,3ο ΓΥΜΝΑΣΙΟ ΑΜΑΛΙΑΔΑΣ,21.350985,37.803061
86,ΓΥΜΝΑΣΙΟ ΣΑΒΑΛΙΩΝ ΗΛΕΙΑΣ,21.286332,37.821434
87,ΓΥΜΝΑΣΙΟ ΓΑΣΤΟΥΝΗΣ,21.247124,37.847231
88,2ο ΓΥΜΝΑΣΙΟ ΑΜΑΛΙΑΔΑΣ,21.346878,37.787958
89,ΓΥΜΝΑΣΙΟ ΚΑΤΟΥΝΑΣ,21.118707,38.784711
90,ΓΥΜΝΑΣΙΟ ΠΑΛΑΙΟΜΑΝΙΝΑΣ,21.242186,38.549056
91,ΓΥΜΝΑΣΙΟ ΝΕΟΧΩΡΙΟΥ ΑΙΤ/ΝΙΑΣ,21.277365,38.406867
92,ΔΗΜΟΤΙΚΟ ΣΧΟΛΕΙΟ ΑΓΡΑΣ ΜΕΙΟΝΟΤΙΚΟ,,
93,3ο ΓΥΜΝΑΣΙΟ ΠΑΤΡΑΣ,21.731494,38.2365
94,ΓΥΜΝΑΣΙΟ ΚΑΤΟΧΗΣ,21.257084,38.411165
95,ΔΗΜΟΤΙΚΟ ΣΧΟΛΕΙΟ ΠΑΣΣΟΥ ΜΕΙΟΝΟΤΙΚΟ,,
96,11ο ΓΥΜΝΑΣΙΟ ΠΑΤΡΑΣ,21.739307,38.219379
97,9ο ΓΥΜΝΑΣΙΟ ΠΑΤΡΑΣ,21.734726,38.2464
98,2ο ΓΥΜΝΑΣΙΟ ΑΙΓΙΟΥ,22.077976,38.248618
99,1ο ΓΥΜΝΑΣΙΟ ΜΕΣΟΛΟΓΓΙΟΥ,21.438158,38.378922
100,ΓΥΜΝΑΣΙΟ ΑΓΡΙΝΙΟΥ ΕΣΠΕΡΙΝΟ,21.4096,38.616794
101,6ο ΓΥΜΝΑΣΙΟ ΑΓΡΙΝΙΟΥ,21.404597,38.61924
102,ΓΥΜΝΑΣΙΟ ΚΑΛΥΒΙΩΝ ΤΡΙΧΩΝΙΔΑΣ,21.295198,38.617202
103,ΓΥΜΝΑΣΙΟ ΑΓΙΟΥ ΚΩΝΣΤΑΝΤΙΝΟΥ ΤΡΙΧΩΝΙΔΑΣ,21.39334,38.632645
104,ΓΥΜΝΑΣΙΟ ΚΑΙΝΟΥΡΓΙΟΥ,21.488519,38.604047
105,ΓΥΜΝΑΣΙΟ ΚΑΝΔΗΛΑΣ,20.941016,38.703108
106,ΔΗΜΟΤΙΚΟ ΣΧΟΛΕΙΟ ΚΟΜΑΡΩΝ ΟΡΕΣΤΙΑΔΑΣ,26.22582,41.59535
107,ΓΥΜΝΑΣΙΟ ΝΕΑΠΟΛΗΣ-ΡΟΥΣΕΙΚΩΝ,21.351695,38.644245
108,ΓΥΜΝΑΣΙΟ ΑΝΤΙΡΙΟΥ,21.763291,38.334093
109,3ο ΓΥΜΝΑΣΙΟ ΝΑΥΠΑΚΤΟΥ,21.834677,38.39242
110,ΓΥΜΝΑΣΙΟ ΑΣΤΑΚΟΥ ΚΑΡΑΜΟΥΖΕΙΟ,21.083173,38.534466
111,ΓΥΜΝΑΣΙΟ ΒΟΝΙΤΣΑΣ,20.884987,38.915958
112,ΔΗΜΟΤΙΚΟ ΣΧΟΛΕΙΟ ΔΙΚΑΙΩΝ ΟΡΕΣΤΙΑΔΑΣ,26.299195,41.70349
113,3ο ΓΥΜΝΑΣΙΟ ΑΓΡΙΝΙΟΥ,21.414241,38.618602
114,ΓΥΜΝΑΣΙΟ ΑΙΓΙΟΥ ΑΘΛΗΤΙΚΟ,22.073004,38.247016
115,ΓΥΜΝΑΣΙΟ ΠΑΤΡΑΣ ΜΟΥΣΙΚΟ,21.755973,38.220246
116,2ο ΓΥΜΝΑΣΙΟ ΝΑΥΠΑΚΤΟΥ,21.820148,38.392213
117,ΓΥΜΝΑΣΙΟ ΚΑΤΩ ΚΑΣΤΡΙΤΣΙΟΥ,21.80266,38.288643
118,ΓΥΜΝΑΣΙΟ ΘΕΡΜΟΥ,21.6689,38.572433
119,ΓΥΜΝΑΣΙΟ ΠΑΡΑΒΟΛΑΣ,21.527167,38.613328
120,1ο ΓΥΜΝΑΣΙΟ ΝΑΥΠΑΚΤΟΥ,21.820957,38.391035
121,ΓΥΜΝΑΣΙΟ ΠΑΝΑΙΤΩΛΙΟΥ,21.44683,38.579507
122,ΓΥΜΝΑΣΙΟ ΛΟΥΤΡΟΥ ΚΡΙΚΕΛΟΥ,21.181121,38.94409
123,ΓΥΜΝΑΣΙΟ ΑΜΦΙΛΟΧΙΑΣ,21.163085,38.860172
124,ΔΗΜΟΤΙΚΟ ΣΧΟΛΕΙΟ ΠΕΡΙΘΩΡΙΟΥ,23.782219,41.309994
125,2ο ΓΥΜΝΑΣΙΟ ΠΑΤΡΑΣ,21.729938,38.243316
126,4ο ΓΥΜΝΑΣΙΟ ΑΓΡΙΝΙΟΥ,21.41513,38.614982
127,5ο ΓΥΜΝΑΣΙΟ ΑΓΡΙΝΙΟΥ,21.41557,38.623456
128,ΓΥΜΝΑΣΙΟ ΠΑΤΡΑΣ ΑΘΛΗΤΙΚΟ,21.74762,38.222233
129,2ο ΓΥΜΝΑΣΙΟ ΠΑΡΑΛΙΑΣ ΠΑΤΡΑΣ,21.702631,38.197157
130,ΓΥΜΝΑΣΙΟ ΜΟΝΑΣΤΗΡΑΚΙΟΥ,20.945528,38.850344
131,ΓΥΜΝΑΣΙΟ ΑΓΡΙΝΙΟΥ ΜΟΥΣΙΚΟ,21.415048,38.61502
132,"1ο ΓΥΜΝΑΣΙΟ ΑΓΡΙΝΙΟΥ ""ΠΑΠΑΣΤΡΑΤΕΙΟ """,21.406227,38.628355
133,10ο ΓΥΜΝΑΣΙΟ ΠΑΤΡΑΣ,21.73334,38.214403
134,ΓΥΜΝΑΣΙΟ ΔΕΜΕΝΙΚΩΝ ΑΧΑΙΑΣ,21.741581,38.208575
135,ΓΥΜΝΑΣΙΟ ΚΑΜΑΡΟΥΛΑΣ ΑΙΤ/ΝΙΑΣ,21.446871,38.62928
136,ΓΥΜΝΑΣΙΟ ΠΑΤΡΑΣ ΠΕΙΡΑΜΑΤΙΚΟ,21.744272,38.228051
137,2ο ΓΥΜΝΑΣΙΟ ΑΓΡΙΝΙΟΥ,21.40447,38.619264
138,ΓΥΜΝΑΣΙΟ ΜΑΤΑΡΑΓΚΑΣ,21.472575,38.522816
139,12ο ΓΥΜΝΑΣΙΟ ΠΑΤΡΑΣ,21.734711,38.226153
140,ΓΥΜΝΑΣΙΟ ΓΟΥΡΙΑΣ,21.263605,38.472036
141,1ο ΓΥΜΝΑΣΙΟ ΑΙΓΙΟΥ,22.076966,38.249256
142,ΓΥΜΝΑΣΙΟ ΓΑΒΑΛΟΥΣ,21.537019,38.527227
143,7ο ΓΥΜΝΑΣΙΟ ΑΓΡΙΝΙΟΥ,21.416492,38.625242
144,4ο ΓΥΜΝΑΣΙΟ ΠΑΤΡΑΣ,21.743043,38.235384
145,18ο ΓΥΜΝΑΣΙΟ ΠΑΤΡΑΣ ΚΩΦΩΝ,21.742947,38.242604
146,ΓΥΜΝΑΣΙΟ ΡΙΟΛΟΥ,21.466488,38.056537
147,ΓΥΜΝΑΣΙΟ ΦΑΡΩΝ,21.716413,38.090181
148,ΓΥΜΝΑΣΙΟ ΕΥΗΝΟΧΩΡΙΟΥ,21.535178,38.359332
149,2ο ΓΥΜΝΑΣΙΟ ΜΕΣΟΛΟΓΓΙΟΥ,21.431067,38.374068
150,ΔΗΜΟΤΙΚΟ ΣΧΟΛΕΙΟ ΣΚΙΑΔΑΣ ΜΕΙΟΝΟΤΙΚΟ,,
151,ΓΥΜΝΑΣΙΟ ΦΥΤΕΙΩΝ,21.185954,38.694953
152,4ο ΕΝΙΑΙΟ ΛΥΚΕΙΟ ΑΓΡΙΝΙΟΥ,21.386121,38.63453
153,ΕΝΙΑΙΟ ΛΥΚΕΙΟ ΛΑΠΠΑ,21.402308,38.126268
154,5ο ΕΝΙΑΙΟ ΛΥΚΕΙΟ ΑΓΡΙΝΙΟΥ,21.413462,38.625451
155,ΕΝΙΑΙΟ ΛΥΚΕΙΟ ΑΙΓΕΙΡΑΣ ΑΧΑΪΑΣ,,
156,ΔΗΜΟΤΙΚΟ ΣΧΟΛΕΙΟ ΠΟΤΑΜΟΥ ΚΥΘΗΡΩΝ ΔΗΛΑΒΕΡΕΙΟ,22.963121,36.298382
157,ΕΝΙΑΙΟ ΛΥΚΕΙΟ ΠΑΤΡΑΣ ΕΣΠΕΡΙΝΟ,21.731972,38.2367
158,ΕΝΙΑΙΟ ΛΥΚΕΙΟ ΡΙΟΥ,21.782765,38.300414
159,ΕΝΙΑΙΟ ΛΥΚΕΙΟ ΚΑΣΤΡΙΤΣΙΟΥ,21.80266,38.288643
160,ΕΝΙΑΙΟ ΛΥΚΕΙΟ ΕΥΗΝΟΧΩΡΙΟΥ,21.535178,38.359332
161,ΕΝΙΑΙΟ ΛΥΚΕΙΟ ΜΑΤΑΡΑΓΚΑΣ,21.472575,38.522816
162,3ο ΔΗΜΟΤΙΚΟ ΣΧΟΛΕΙΟ ΣΚΟΠΕΛΟΥ-ΚΛΗΜΑΤΟΣ,23.643403,39.137967
163,2ο ΕΝΙΑΙΟ ΛΥΚΕΙΟ ΝΑΥΠΑΚΤΟΥ,21.820148,38.392213
164,ΕΝΙΑΙΟ ΛΥΚΕΙΟ ΝΕΟΧΩΡΙΟΥ ΑΙΤ/ΝΙΑΣ,21.277365,38.406867
165,ΕΝΙΑΙΟ ΛΥΚΕΙΟ ΘΕΡΜΟΥ,21.6689,38.572433
166,1ο ΕΝΙΑΙΟ ΛΥΚΕΙΟ ΝΑΥΠΑΚΤΟΥ,21.820957,38.391035
167,ΕΝΙΑΙΟ ΛΥΚΕΙΟ ΚΑΤΟΥΝΑΣ,21.118707,38.784711
168,ΑΡΣΑΚΕΙΟ ΕΝΙΑΙΟ ΛΥΚΕΙΟ ΠΑΤΡΑΣ,,
169,ΔΗΜΟΤΙΚΟ ΣΧΟΛΕΙΟ ΜΑΝΤΑΜΑΔΟΥ ΛΕΣΒΟΥ,26.337309,39.310332
170,ΕΝΙΑΙΟ ΛΥΚΕΙΟ ΑΝΔΡΙΤΣΑΙΝΑΣ,21.907002,37.484598
171,ΕΝΙΑΙΟ ΛΥΚΕΙΟ ΔΙΑΚΟΠΤΟΥ,22.200553,38.188714
172,ΕΝΙΑΙΟ ΛΥΚΕΙΟ ΒΟΥΝΑΡΓΟΥ,21.411405,37.735016
173,1ο ΕΝΙΑΙΟ ΛΥΚΕΙΟ ΑΜΑΛΙΑΔΑΣ,21.35516,37.800522
174,ΕΝΙΑΙΟ ΛΥΚΕΙΟ ΑΜΦΙΛΟΧΙΑΣ,21.163085,38.860172
175,ΕΝΙΑΙΟ ΛΥΚΕΙΟ ΒΟΝΙΤΣΑΣ,20.884987,38.915958
176,ΕΝΙΑΙΟ ΛΥΚΕΙΟ ΑΣΤΑΚΟΥ,21.083173,38.534466
177,ΕΝΙΑΙΟ ΛΥΚΕΙΟ ΑΙΤΩΛΙΚΟΥ,21.319359,38.427731
178,10ο ΕΝΙΑΙΟ ΛΥΚΕΙΟ ΠΑΤΡΑΣ,21.733635,38.250877
179,9ο ΕΝΙΑΙΟ ΛΥΚΕΙΟ ΠΑΤΡΑΣ,21.754089,38.272996
180,ΕΝΙΑΙΟ ΛΥΚΕΙΟ ΖΑΧΑΡΩΣ,21.651403,37.485198
181,ΕΝΙΑΙΟ ΛΥΚΕΙΟ ΠΑΡΑΒΟΛΑΣ,21.527167,38.613328
182,4ο ΕΝΙΑΙΟ ΛΥΚΕΙΟ ΠΑΤΡΑΣ,21.742789,38.241166
183,3ο ΕΝΙΑΙΟ ΛΥΚΕΙΟ ΠΑΤΡΑΣ,21.732039,38.229976
184,ΕΝΙΑΙΟ ΛΥΚΕΙΟ ΠΕΛΟΠΙΟΥ,21.594364,37.676214
185,1ο ΕΝΙΑΙΟ ΛΥΚΕΙΟ ΠΥΡΓΟΥ,21.437116,37.675261
186,2ο ΕΝΙΑΙΟ ΛΥΚΕΙΟ ΠΑΤΡΑΣ,21.744296,38.227943
187,3ο ΕΝΙΑΙΟ ΛΥΚΕΙΟ ΑΓΡΙΝΙΟΥ,21.404703,38.619215
188,1ο ΕΝΙΑΙΟ ΛΥΚΕΙΟ ΠΑΤΡΑΣ,21.752326,38.259682
189,7ο ΕΝΙΑΙΟ ΛΥΚΕΙΟ ΠΑΤΡΑΣ,21.721803,38.225895
190,2ο ΕΝΙΑΙΟ ΛΥΚΕΙΟ ΑΙΓΙΟΥ,22.085717,38.243692
191,1ο ΕΝΙΑΙΟ ΛΥΚΕΙΟ ΑΙΓΙΟΥ,22.076995,38.24914
192,8ο ΕΝΙΑΙΟ ΛΥΚΕΙΟ ΠΑΤΡΑΣ,21.740156,38.21596
193,ΕΝΙΑΙΟ ΛΥΚΕΙΟ ΒΡΑΧΝΕΙΚΩΝ ΠΑΤΡΑΣ,21.670538,38.16074
194,"3ο ΕΝΙΑΙΟ ΛΥΚΕΙΟ ΠΥΡΓΟΥ ""PIERRE DE COUBERTIN""",21.446174,37.668548
195,ΕΝΙΑΙΟ ΛΥΚΕΙΟ ΓΑΣΤΟΥΝΗΣ,21.247124,37.847231
196,2ο ΕΝΙΑΙΟ ΛΥΚΕΙΟ ΠΥΡΓΟΥ,21.431099,37.673528
197,2ο ΕΝΙΑΙΟ ΛΥΚΕΙΟ ΑΜΑΛΙΑΔΑΣ,21.346878,37.787958
198,ΕΝΙΑΙΟ ΛΥΚΕΙΟ ΠΑΝΑΙΤΩΛΙΟΥ,21.44683,38.579507
199,ΕΝΙΑΙΟ ΛΥΚΕΙΟ ΚΡΕΣΤΕΝΩΝ,21.622652,37.593503
200,ΕΝΙΑΙΟ ΛΥΚΕΙΟ ΑΚΡΑΤΑΣ,22.315972,38.152904
201,ΕΝΙΑΙΟ ΛΥΚΕΙΟ ΚΑΛΑΒΡΥΤΩΝ,22.112588,38.029761
202,ΕΝΙΑΙΟ ΛΥΚΕΙΟ ΠΑΤΡΑΣ ΠΕΙΡΑΜΑΤΙΚΟ ΠΑΝΕΠΙΣΤΗΜΙΟΥ ΠΑΤΡΑΣ,21.752156,38.25976
203,ΔΗΜΟΤΙΚΟ ΣΧΟΛΕΙΟ ΜΗΘΥΜΝΑΣ ΛΕΣΒΟΥ,26.1777,39.366841
204,ΕΝΙΑΙΟ ΛΥΚΕΙΟ ΓΑΒΑΛΟΥΣ,21.537019,38.527227
205,1ο ΕΝΙΑΙΟ ΛΥΚΕΙΟ ΜΕΣΟΛΟΓΓΙΟΥ,21.431147,38.378126
206,ΕΝΙΑΙΟ ΛΥΚΕΙΟ ΛΕΧΑΙΝΩΝ,21.26249,37.937023
207,1ο ΕΝΙΑΙΟ ΛΥΚΕΙΟ ΑΓΡΙΝΙΟΥ,21.417835,38.627214
208,ΕΝΙΑΙΟ ΛΥΚΕΙΟ ΠΑΡΑΛΙΑΣ ΠΑΤΡΑΣ,21.719281,38.223562
209,11ο ΕΝΙΑΙΟ ΛΥΚΕΙΟ ΠΑΤΡΑΣ,21.739475,38.250301
210,2ο ΕΝΙΑΙΟ ΛΥΚΕΙΟ ΑΓΡΙΝΙΟΥ,21.389408,38.635321
211,ΕΝΙΑΙΟ ΛΥΚΕΙΟ ΑΝΔΡΑΒΙΔΑΣ,21.270202,37.90619
212,ΕΝΙΑΙΟ ΛΥΚΕΙΟ ΒΑΡΘΟΛΟΜΙΟΥ,21.207899,37.860054
213,2ο ΕΝΙΑΙΟ ΛΥΚΕΙΟ ΜΕΣΟΛΟΓΓΙΟΥ,21.431147,38.378126
214,ΕΝΙΑΙΟ ΛΥΚΕΙΟ ΠΑΤΡΑΣ ΜΟΥΣΙΚΟ,21.755971,38.220257
215,12ο ΕΝΙΑΙΟ ΛΥΚΕΙΟ ΠΑΤΡΑΣ,21.738701,38.221092
216,ΕΝΙΑΙΟ ΛΥΚΕΙΟ ΠΑΤΡΑΣ ΕΚΚΛΗΣΙΑΣΤΙΚΟ,21.737675,38.248338
217,ΕΝΙΑΙΟ ΛΥΚΕΙΟ ΠΑΤΡΑΣ ΠΕΙΡΑΜΑΤΙΚΟ,21.744214,38.228176
218,ΕΝΙΑΙΟ ΛΥΚΕΙΟ ΔΕΜΕΝΙΚΩΝ,,
219,ΕΝΙΑΙΟ ΛΥΚΕΙΟ ΝΕΑΣ ΦΙΓΑΛΕΙΑΣ,21.773605,37.43963
220,ΕΝΙΑΙΟ ΛΥΚΕΙΟ ΚΑΜΑΡΩΝ,22.004081,38.299662
221,"6ο ΕΝΙΑΙΟ ΛΥΚΕΙΟ ΠΑΤΡΑΣ ""ΑΝΔΡΕΑΣ ΠΑΠΑΝΔΡΕΟΥ""",21.73936,38.250326
222,ΕΝΙΑΙΟ ΛΥΚΕΙΟ ΚΑΤΩ ΑΧΑΙΑΣ,21.54315,38.142529
223,ΔΗΜΟΤΙΚΟ ΣΧΟΛΕΙΟ ΣΚΟΥΤΑΡΟΥ ΛΕΣΒΟΥ,26.134482,39.290566
224,ΕΝΙΑΙΟ ΛΥΚΕΙΟ ΚΑΡΑΤΟΥΛΑ,21.537596,37.734251
225,ΕΝΙΑΙΟ ΛΥΚΕΙΟ ΛΑΛΑ,21.72214,37.709659
226,5ο ΕΝΙΑΙΟ ΛΥΚΕΙΟ ΠΑΤΡΑΣ ΕΤΑΔ,21.734806,38.228829
227,ΕΝΙΑΙΟ ΛΥΚΕΙΟ ΛΟΥΣΙΚΩΝ,21.594508,38.108892
228,ΕΝΙΑΙΟ ΛΥΚΕΙΟ ΒΑΡΔΑΣ,21.365354,38.031541
229,ΕΝΙΑΙΟ ΛΥΚΕΙΟ ΣΙΜΟΠΟΥΛΟΥ,21.572047,37.849805
230,5ο ΕΝΙΑΙΟ ΛΥΚΕΙΟ ΠΑΤΡΑΣ - Τ.Α.Δ.,21.747592,38.222319
231,ΕΝΙΑΙΟ ΛΥΚΕΙΟ ΒΑΣΙΛΑΚΙΟΥ,21.763542,37.64918
232,4ο ΕΝΙΑΙΟ ΛΥΚΕΙΟ ΠΥΡΓΟΥ,21.439477,37.665059
233,13ο ΕΝΙΑΙΟ ΛΥΚΕΙΟ ΠΑΤΡΑΣ,21.735132,38.246099
234,ΤΕΕ ΠΑΡΑΛΙΑΣ ΠΑΤΡΑΣ,21.703498,38.183568
235,9ο ΤΕΕ ΠΑΤΡΑΣ ΕΣΠΕΡΙΝΟ,21.740335,38.237987
236,1ο ΤΕΕ ΑΜΑΛΙΑΔΑΣ,21.352202,37.794749
237,1ο ΤΕΕ ΛΕΧΑΙΝΩΝ,21.26249,37.937023
238,1ο ΤΕΕ ΠΥΡΓΟΥ,21.444197,37.671197
239,1ο ΤΕΕ ΚΡΕΣΤΕΝΩΝ,21.622652,37.593503
240,1ο ΤΕΕ ΠΑΤΡΑΣ,21.752177,38.222439
241,6ο ΤΕΕ ΠΑΤΡΑΣ,21.75036,38.215096
242,1ο ΤΕΕ ΚΑΤΟΧΗΣ,21.257084,38.411165
243,2ο ΤΕΕ ΜΕΣΟΛΟΓΓΙΟΥ,21.442491,38.374024
244,1ο ΤΕΕ ΜΑΚΡΥΝΕΙΑΣ,21.453926,38.527183
245,2ο ΤΕΕ ΑΙΓΙΟΥ,22.083215,38.245009
246,1ο ΤΕΕ ΜΕΣΟΛΛΟΓΙΟΥ,21.442534,38.374015
247,ΤΕΕ ΚΑΛΑΒΡΥΤΩΝ,22.112588,38.029761
248,1ο ΤΕΕ ΚΑΙΝΟΥΡΓΙΟΥ,21.488519,38.604047
249,1ο ΤΕΕ ΒΟΝΙΤΣΑΣ,20.884987,38.915958
250,3ο ΤΕΕ ΠΑΤΡΑΣ ΕΣΠΕΡΙΝΟ,21.731965,38.229989
251,4ο ΤΕΕ ΠΑΤΡΑΣ,21.75416,38.273085
252,5ο ΤΕΕ ΠΑΤΡΑΣ ΕΣΠΕΡΙΝΟ,21.744438,38.248834
253,1ο ΤΕΕ ΑΙΓΙΟΥ,22.083215,38.245009
254,2ο ΤΕΕ ΠΥΡΓΟΥ,,
255,7ο ΤΕΕ ΠΑΤΡΑΣ,21.753175,38.221491
256,ΤΕΕ ΠΑΤΡΑΣ ΕΙΔΙΚΟ,,
257,3ο ΤΕΕ ΑΓΡΙΝΙΟΥ,21.386121,38.63453
258,1ο ΤΕΕ ΑΜΦΙΛΟΧΙΑΣ,21.163085,38.860172
259,2ο ΤΕΕ ΑΓΡΙΝΙΟΥ,21.413462,38.625451
260,2ο ΤΕΕ ΑΜΑΛΙΑΔΑΣ,,
261,2ο ΤΕΕ ΠΑΤΡΑΣ,21.752115,38.222626
262,10ο ΤΕΕ ΠΑΤΡΑΣ,21.747153,38.253748
263,1ο ΤΕΕ ΝΑΥΠΑΚΤΟΥ,21.820176,38.392171
264,1ο ΤΕΕ ΑΓΡΙΝΙΟΥ,21.413462,38.625451
265,8ο ΤΕΕ ΠΑΤΡΑΣ,21.740335,38.23797
266,1ο ΤΕΕ ΚΑΤΩ ΑΧΑΙΑΣ,21.54315,38.142529
267,2ο ΤΕΕ ΝΑΥΠΑΚΤΟΥ,21.820176,38.392171
268,1ο ΣΕΚ ΝΑΥΠΑΚΤΟΥ,21.820176,38.392171
269,1ο ΣΕΚ ΑΙΓΙΟΥ,22.083215,38.245009
270,1ο ΣΕΚ ΚΑΤΩ ΑΧΑΪΑΣ,21.54315,38.142529
271,2ο ΣΕΚ ΠΑΤΡΑΣ,21.745326,38.251258
272,1ο ΣΕΚ ΑΧΑΙΑΣ (ΠΑΤΡΑΣ),21.752395,38.22153
273,3ο ΣΕΚ ΠΑΤΡΑΣ,21.754148,38.273086
274,1ο ΣΕΚ ΑΙΤΩΛΟΑΚΑΡΝΑΝΙΑΣ (ΑΓΡΙΝΙΟΥ),21.386121,38.63453
275,1ο ΣΕΚ ΜΕΣΟΛΟΓΓΙΟΥ,21.442491,38.374024
276,ΣΥΜΒΟΥΛΕΥΤΙΚΟΣ ΣΤΑΘΜΟΣ ΝΕΩΝ ΑΧΑΙΑΣ,21.729169,38.210899
277,ΔΗΜΟΤΙΚΟ ΣΧΟΛΕΙΟ ΣΤΑΜΝΑΣ ΜΕΣΟΛΟΓΓΙΟΥ,21.282286,38.514379
278,1ο ΔΗΜΟΤΙΚΟ ΣΧΟΛΕΙΟ ΚΕΚΡΟΠΙΑΣ,,
279,ΔΗΜΟΤΙΚΟ ΣΧΟΛΕΙΟ ΒΑΡΗΣ ΣΥΡΟΥ,,
280,ΔΗΜΟΤΙΚΟ ΣΧΟΛΕΙΟ ΝΕΟΥ ΓΟΡΓΟΜΥΛΟΥ,,
281,ΔΗΜΟΤΙΚΟ ΣΧΟΛΕΙΟ ΚΑΤΩ ΖΕΥΓΑΡΑΚΙΟΥ ΜΕΣΟΛΟΓΓΙ,21.412859,38.537819
282,ΔΗΜΟΤΙΚΟ ΣΧΟΛΕΙΟ ΜΑΤΑΡΑΓΚΑΣ ΜΕΣΟΛΟΓΓΙΟΥ,21.472079,38.522847
283,22ο ΔΗΜΟΤΙΚΟ ΣΧΟΛΕΙΟ ΑΓΡΙΝΙΟΥ,,
284,ΔΗΜΟΤΙΚΟ ΣΧΟΛΕΙΟ ΔΟΥΚΑΔΩΝ ΚΕΡΚΥΡΑΣ,19.740413,39.686011
285,ΔΗΜΟΤΙΚΟ ΣΧΟΛΕΙΟ ΠΑΠΑΔΑΤΩΝ ΜΕΣΟΛΟΓΓΙΟΥ,21.453034,38.526364
286,ΔΗΜΟΤΙΚΟ ΣΧΟΛΕΙΟ ΠΕΡΙΘΩΡΙΟΥ ,21.568302,38.38891
287,ΔΗΜΟΤΙΚΟ ΣΧΟΛΕΙΟ ΚΕΦΑΛΟΒΡΥΣΟΥ ΣΤΑΜΝΑΣ,,
288,ΔΗΜΟΤΙΚΟ ΣΧΟΛΕΙΟ ΓΑΒΑΛΟΥΣ ΜΕΣΟΛΟΓΓΙΟΥ,21.535461,38.527164
289,ΔΗΜΟΤΙΚΟ ΣΧΟΛΕΙΟ ΕΛΛΗΝΙΚΩΝ ΜΕΣΟΛΟΓΓΙΟΥ,21.4171,38.478366
290,ΔΗΜΟΤΙΚΟ ΣΧΟΛΕΙΟ ΚΑΤΩ ΑΜΠΕΛΙΩΝ ΜΕΣΟΛΟΓΓΙΟΥ,,
291,1ο ΔΗΜΟΤΙΚΟ ΣΧΟΛΕΙΟ ΕΥΗΝΟΧΩΡΙΟΥ,21.534403,38.358607
292,ΔΗΜΟΤΙΚΟ ΣΧΟΛΕΙΟ ΓΑΛΑΤΑ ΜΕΣΟΛΟΓΓΙΟΥ,21.56055,38.352837
293,2ο ΔΗΜΟΤΙΚΟ ΣΧΟΛΕΙΟ ΕΥΗΝΟΧΩΡΙΟΥ,21.53451,38.358785
294,ΔΗΜΟΤΙΚΟ ΣΧΟΛΕΙΟ ΣΑΓΚΡΙΟΥ ΝΑΞΟΥ,25.435301,37.039664
295,ΔΗΜΟΤΙΚΟ ΣΧΟΛΕΙΟ ΒΑΣΙΛΑΚΙΟΥ ΠΥΡΓΟΥ,21.762592,37.649054
296,ΔΗΜΟΤΙΚΟ ΣΧΟΛΕΙΟ ΗΡΑΚΛΕΙΑΣ ΠΥΡΓΟΥ,21.571446,37.692969
297,ΔΗΜΟΤΙΚΟ ΣΧΟΛΕΙΟ ΡΑΙΝΑΣ,,
298,1ο ΔΗΜΟΤΙΚΟ ΣΧΟΛΕΙΟ ΝΕΑΠΟΛΗΣ,,
299,ΔΗΜΟΤΙΚΟ ΣΧΟΛΕΙΟ ΣΠΟΛΑΙΤΑΣ ΤΡΙΧΩΝΙΔΑΣ,21.349958,38.696219
300,ΔΗΜΟΤΙΚΟ ΣΧΟΛΕΙΟ ΠΟΤΑΜΟΥΛΑΣ ΤΡΙΧΩΝΙΔΑΣ,21.438198,38.761544
301,ΔΗΜΟΤΙΚΟ ΣΧΟΛΕΙΟ ΚΑΤΟΥΝΑΣ ΞΗΡΟΜΕΡΟΥ,21.077135,38.819976
302,1ο ΔΗΜΟΤΙΚΟ ΣΧΟΛΕΙΟ ΔΑΦΝΗΣ,21.866189,38.420845
303,ΔΗΜΟΤΙΚΟ ΣΧΟΛΕΙΟ ΣΤΑΜΑΤΟΓΙΑΝΝΕΙΚΩΝ,,
304,ΔΗΜΟΤΙΚΟ ΣΧΟΛΕΙΟ ΑΝΟΙΞΙΑΤΙΚΟΥ ΑΜΦΙΛΟΧ,21.170342,38.970227
305,ΔΗΜΟΤΙΚΟ ΣΧΟΛΕΙΟ ΠΕΛΟΠΙΟΥ ΠΥΡΓΟΥ,21.59379,37.676193
306,ΔΗΜΟΤΙΚΟ ΣΧΟΛΕΙΟ ΚΑΤΑΚΟΛΟΥ ΠΥΡΓΟΥ,21.311639,37.639427
307,ΔΗΜΟΤΙΚΟ ΣΧΟΛΕΙΟ ΜΟΥΖΑΚΙΟΥ ΠΥΡΓΟΥ,21.561609,37.781803
308,ΔΗΜΟΤΙΚΟ ΣΧΟΛΕΙΟ ΠΡΑΣΙΝΟΥ ΠΥΡΓΟΥ,21.423387,37.71472
309,ΔΗΜΟΤΙΚΟ ΣΧΟΛΕΙΟ ΚΑΡΥΑΣ,21.537055,37.734047
310,ΔΗΜΟΤΙΚΟ ΣΧΟΛΕΙΟ ΡΟΔΙΑΣ,21.586159,37.810582
311,ΔΗΜΟΤΙΚΟ ΣΧΟΛΕΙΟ ΠΡΙΝΑΡΙΟΥ,21.53409,37.869784
312,ΔΗΜΟΤΙΚΟ ΣΧΟΛΕΙΟ ΚΑΡΑΤΟΥΛΑ ΜΑΓΟΥΛΑ ΠΥΡΓΟΥ,21.537851,37.7303
313,ΔΗΜΟΤΙΚΟ ΣΧΟΛΕΙΟ ΣΚΟΥΡΟΧΩΡΙΟΥ ΠΥΡΓΟΥ,21.35947,37.684233
314,ΔΗΜΟΤΙΚΟ ΣΧΟΛΕΙΟ ΠΕΥΚΗΣ ΠΥΡΓΟΥ,21.659158,37.772139
315,ΔΗΜΟΤΙΚΟ ΣΧΟΛΕΙΟ ΜΥΡΤΕΑΣ ΠΥΡΓΟΥ,21.351055,37.711934
316,ΔΗΜΟΤΙΚΟ ΣΧΟΛΕΙΟ ΚΑΚΟΤΑΡΙΟΥ ΠΥΡΓΟΥ,21.701227,37.83766
317,ΔΗΜΟΤΙΚΟ ΣΧΟΛΕΙΟ ΕΛΑΙΩΝΑ ΠΥΡΓΟΥ,,
318,ΔΗΜΟΤΙΚΟ ΣΧΟΛΕΙΟ ΒΟΥΝΑΡΓΟΥ ΠΥΡΓΟΥ,21.409752,37.734968
319,ΔΗΜΟΤΙΚΟ ΣΧΟΛΕΙΟ ΣΑΜΙΚΟΥ ΟΛΥΜΠΙΑΣ,21.588512,37.572866
320,ΔΗΜΟΤΙΚΟ ΣΧΟΛΕΙΟ ΡΑΧΩΝ ΟΛΥΜΠΙΑΣ,21.564833,37.585647
321,4ο ΔΗΜΟΤΙΚΟ ΣΧΟΛΕΙΟ ΠΥΡΓΟΥ,21.439034,37.665543
322,ΔΗΜΟΤΙΚΟ ΣΧΟΛΕΙΟ ΧΕΙΜΑΔΙΟΥ ΠΥΡΓΟΥ,21.508308,37.759941
323,ΔΗΜΟΤΙΚΟ ΣΧΟΛΕΙΟ ΤΣΙΠΙΑΝΩΝ ΠΥΡΓΟΥ,21.763128,37.871514
324,ΔΗΜΟΤΙΚΟ ΣΧΟΛΕΙΟ ΝΕΑΣ ΠΕΡΣΑΙΝΑΣ,21.676224,37.751585
325,ΔΗΜΟΤΙΚΟ ΣΧΟΛΕΙΟ ΠΥΡΓΟΥ ΕΙΔΙΚΟ,,
326,3ο ΔΗΜΟΤΙΚΟ ΣΧΟΛΕΙΟ ΓΑΣΤΟΥΝΗΣ,21.245794,37.846877
327,ΔΗΜΟΤΙΚΟ ΣΧΟΛΕΙΟ ΑΓΙΑΣ ΦΙΛΟΘΕΗΣ ΠΥΡΓΟΥ,,
328,ΔΗΜΟΤΙΚΟ ΣΧΟΛΕΙΟ ΚΑΛΛΙΚΩΜΟΥ,21.586487,37.590174
329,ΔΗΜΟΤΙΚΟ ΣΧΟΛΕΙΟ ΛΕΥΚΗΣ ΟΛΥΜΠΙΑΣ,,
330,ΔΗΜΟΤΙΚΟ ΣΧΟΛΕΙΟ ΜΕΣΟΛΟΓΓΙΟΥ ΕΙΔΙΚΟ ΔΗΜΗΤΡΟΥΚΕΙΟ,,
331,1ο ΔΗΜΟΤΙΚΟ ΣΧΟΛΕΙΟ ΒΑΡΘΟΛΟΜΙΟΥ,21.207084,37.860062
332,ΔΗΜΟΤΙΚΟ ΣΧΟΛΕΙΟ ΒΡΑΝΑ,,
333,17ο ΔΗΜΟΤΙΚΟ ΣΧΟΛΕΙΟ ΑΓΡΙΝΙΟΥ,21.409598,38.616672
334,ΔΗΜΟΤΙΚΟ ΣΧΟΛΕΙΟ ΚΟΡΥΦΗΣ,21.43116,37.760416
335,ΔΗΜΟΤΙΚΟ ΣΧΟΛΕΙΟ ΕΠΙΤΑΛΙΟΥ ΟΛΥΜΠΙΑΣ,21.494749,37.626331
336,ΔΗΜΟΤΙΚΟ ΣΧΟΛΕΙΟ ΜΑΖΑΡΑΚΙΟΥ ΑΜΑΛΙΑΔΑΣ,21.590054,37.878962
337,ΔΗΜΟΤΙΚΟ ΣΧΟΛΕΙΟ ΛΑΤΤΑ ΑΜΑΛΙΑΔΑΣ,21.548217,37.876273
338,ΔΗΜΟΤΙΚΟ ΣΧΟΛΕΙΟ ΛΑΜΠΕΙΑΣ ΠΥΡΓΟΥ,21.804065,37.856596
339,ΔΗΜΟΤΙΚΟ ΣΧΟΛΕΙΟ ΛΑΓΑΝΑ,21.560206,37.831149
340,ΔΗΜΟΤΙΚΟ ΣΧΟΛΕΙΟ ΑΧΛΑΔΙΝΗΣ ΠΥΡΓΟΥ,21.784571,37.719666
341,ΔΗΜΟΤΙΚΟ ΣΧΟΛΕΙΟ ΣΑΛΜΩΝΗΣ ΠΥΡΓΟΥ,21.534833,37.659122
342,ΔΗΜΟΤΙΚΟ ΣΧΟΛΕΙΟ ΤΡΥΠΗΤΗΣ ΟΛΥΜΠΙΑΣ,21.784617,37.56913
343,ΔΗΜΟΤΙΚΟ ΣΧΟΛΕΙΟ ΚΑΡΔΑΜΑ,21.338144,37.766646
344,ΔΗΜΟΤΙΚΟ ΣΧΟΛΕΙΟ ΑΡΒΑΝΙΤΗ ΠΥΡΓΟΥ,21.523641,37.721563
345,ΔΗΜΟΤΙΚΟ ΣΧΟΛΕΙΟ ΠΑΝΟΠΟΥΛΟΥ ΠΥΡΓΟΥ,21.692657,37.818758
346,5ο ΔΗΜΟΤΙΚΟ ΣΧΟΛΕΙΟ ΠΥΡΓΟΥ,,
347,11ο ΔΗΜΟΤΙΚΟ ΣΧΟΛΕΙΟ ΠΥΡΓΟΥ,,
348,ΔΗΜΟΤΙΚΟ ΣΧΟΛΕΙΟ ΑΓΙΟΥ ΓΕΩΡΓΙΟΥ ΛΑΝΤΖΟΙΟΥ ΠΥΡ,21.564983,37.705688
349,3ο ΔΗΜΟΤΙΚΟ ΣΧΟΛΕΙΟ ΠΥΡΓΟΥ,21.439774,37.665194
350,28ο ΔΗΜΟΤΙΚΟ ΣΧΟΛΕΙΟ ΠΑΤΡΑΣ,21.733267,38.23165
351,ΔΗΜΟΤΙΚΟ ΣΧΟΛΕΙΟ ΜΑΝΟΛΑΔΑΣ ΛΕΧΑΙΝΩΝ,21.348948,38.046079
352,ΔΗΜΟΤΙΚΟ ΣΧΟΛΕΙΟ ΛΥΓΙΑΣ ΛΕΧΑΙΝΩΝ,21.156361,37.857848
353,ΔΗΜΟΤΙΚΟ ΣΧΟΛΕΙΟ ΓΛΥΦΑΣ ΛΕΧΑΙΝΩΝ,,
354,ΔΗΜΟΤΙΚΟ ΣΧΟΛΕΙΟ ΑΝΤΡΩΝΙΟΥ ΠΥΡΓΟΥ,21.719426,37.801754
355,ΔΗΜΟΤΙΚΟ ΣΧΟΛΕΙΟ ΞΥΛΟΚΕΡΑΣ ΠΥΡΓΟΥ,21.39912,37.732422
356,ΔΗΜΟΤΙΚΟ ΣΧΟΛΕΙΟ ΚΑΛΥΒΙΩΝ ΗΛΙΔΑΣ,21.365944,37.885054
357,ΔΗΜΟΤΙΚΟ ΣΧΟΛΕΙΟ ΔΑΦΝΙΩΤΙΣΣΑΣ,21.451683,37.842924
358,ΔΗΜΟΤΙΚΟ ΣΧΟΛΕΙΟ ΔΑΦΝΗΣ,21.428338,37.861916
359,ΔΗΜΟΤΙΚΟ ΣΧΟΛΕΙΟ ΓΕΡΑΚΙΟΥ,21.394384,37.793195
360,ΔΗΜΟΤΙΚΟ ΣΧΟΛΕΙΟ ΒΟΥΛΙΑΓΜΕΝΗΣ,21.607496,37.834672
361,ΔΗΜΟΤΙΚΟ ΣΧΟΛΕΙΟ ΑΥΓΕΙΟΥ,21.362779,37.87406
362,ΔΗΜΟΤΙΚΟ ΣΧΟΛΕΙΟ ΒΡΟΧΙΤΣΑΣ,21.453398,37.739957
363,ΔΗΜΟΤΙΚΟ ΣΧΟΛΕΙΟ ΒΑΛΜΗΣ ΑΜΑΛΙΑΔΑΣ,,
364,ΔΗΜΟΤΙΚΟ ΣΧΟΛΕΙΟ ΓΟΥΜΕΡΟΥ ΠΥΡΓΟΥ,21.617861,37.760639
365,ΔΗΜΟΤΙΚΟ ΣΧΟΛΕΙΟ ΚΕΡΑΜΙΔΙΑΣ,21.454967,37.853157
366,ΔΗΜΟΤΙΚΟ ΣΧΟΛΕΙΟ ΑΜΠΕΛΟΚΑΜΠΟΥ,21.309954,37.830099
367,ΔΗΜΟΤΙΚΟ ΣΧΟΛΕΙΟ ΦΡΙΞΑΣ ΟΛΥΜΠΙΑΣ,21.704013,37.620982
368,ΔΗΜΟΤΙΚΟ ΣΧΟΛΕΙΟ ΑΓΙΟΥ ΒΑΣΙΛΕΙΟΥ ΣΕΙΡΩΝ,,
369,ΔΗΜΟΤΙΚΟ ΣΧΟΛΕΙΟ ΡΟΒΙΑΤΑΣ,21.30385,37.809603
370,ΔΗΜΟΤΙΚΟ ΣΧΟΛΕΙΟ ΠΕΡΙΣΤΕΡΙΟΥ,21.472898,37.804825
371,ΔΗΜΟΤΙΚΟ ΣΧΟΛΕΙΟ ΠΑΛΑΙΟΧΩΡΙΟΥ,21.266746,37.816945
372,ΔΗΜΟΤΙΚΟ ΣΧΟΛΕΙΟ ΟΙΝΟΗΣ,21.525831,37.83737
373,ΔΗΜΟΤΙΚΟ ΣΧΟΛΕΙΟ ΕΦΥΡΑΣ,21.517535,37.855054
374,ΔΗΜΟΤΙΚΟ ΣΧΟΛΕΙΟ ΑΛΠΟΧΩΡΙΟΥ ΠΥΡΓΟΥ,21.375663,37.733237
375,ΔΗΜΟΤΙΚΟ ΣΧΟΛΕΙΟ ΜΙΡΑΚΑΣ ΠΥΡΓΟΥ,21.655208,37.643633
376,ΔΗΜΟΤΙΚΟ ΣΧΟΛΕΙΟ ΚΑΜΕΝΗΣ ΠΥΡΓΟΥ,21.728969,37.652341
377,ΔΗΜΟΤΙΚΟ ΣΧΟΛΕΙΟ ΚΟΛΟΚΥΘΑ,,
378,ΔΗΜΟΤΙΚΟ ΣΧΟΛΕΙΟ ΣΑΒΑΛΙΩΝ,21.287528,37.810041
379,ΔΗΜΟΤΙΚΟ ΣΧΟΛΕΙΟ ΑΜΠΕΛΩΝΟΣ ΠΥΡΓΟΥ,21.466137,37.727258
380,ΔΗΜΟΤΙΚΟ ΣΧΟΛΕΙΟ ΧΑΒΑΡΙΟΥ,21.382937,37.847684
381,ΔΗΜΟΤΙΚΟ ΣΧΟΛΕΙΟ ΣΙΜΟΠΟΥΛΟΥ,21.570861,37.849587
382,ΔΗΜΟΤΙΚΟ ΣΧΟΛΕΙΟ ΑΝΔΡΑΒΙΔΑΣ ΛΕΧΑΙΝΩΝ,21.270072,37.905538
383,ΔΗΜΟΤΙΚΟ ΣΧΟΛΕΙΟ ΣΩΣΤΙΟΥ,21.349014,37.86661
384,ΔΗΜΟΤΙΚΟ ΣΧΟΛΕΙΟ ΡΟΥΠΑΚΙΟΥ,21.32529,37.863877
385,10ο ΔΗΜΟΤΙΚΟ ΣΧΟΛΕΙΟ ΠΥΡΓΟΥ,21.430756,37.675569
386,1ο ΔΗΜΟΤΙΚΟ ΣΧΟΛΕΙΟ ΓΑΣΤΟΥΝΗΣ,21.245798,37.846788
387,2ο ΔΗΜΟΤΙΚΟ ΣΧΟΛΕΙΟ ΑΜΑΛΙΑΔΑΣ,21.344271,37.796724
388,1ο ΔΗΜΟΤΙΚΟ ΣΧΟΛΕΙΟ ΑΜΑΛΙΑΔΑΣ,21.353008,37.7899
389,5ο ΔΗΜΟΤΙΚΟ ΣΧΟΛΕΙΟ ΑΜΑΛΙΑΔΑΣ,21.356871,37.797984
390,4ο ΔΗΜΟΤΙΚΟ ΣΧΟΛΕΙΟ ΑΜΑΛΙΑΔΑΣ,21.349091,37.799527
391,3ο ΔΗΜΟΤΙΚΟ ΣΧΟΛΕΙΟ ΑΜΑΛΙΑΔΑΣ,21.357105,37.794163
392,2ο ΔΗΜΟΤΙΚΟ ΣΧΟΛΕΙΟ ΓΑΣΤΟΥΝΗΣ,21.245682,37.846874
393,ΔΗΜΟΤΙΚΟ ΣΧΟΛΕΙΟ ΑΓΙΑΣ ΤΡΙΑΔΑΣ,,
394,ΔΗΜΟΤΙΚΟ ΣΧΟΛΕΙΟ ΑΓΙΟΥ ΔΗΜΗΤΡΙΟΥ,21.409131,37.897274
395,6ο ΔΗΜΟΤΙΚΟ ΣΧΟΛΕΙΟ ΑΜΑΛΙΑΔΑΣ,21.356102,37.790568
396,ΔΗΜΟΤΙΚΟ ΣΧΟΛΕΙΟ ΚΑΤΩ ΠΑΝΑΓΙΟΥ ΛΕΧΑΙΝΩΝ,21.146947,37.927586
397,ΔΗΜΟΤΙΚΟ ΣΧΟΛΕΙΟ ΚΑΠΕΛΕΤΟΥ ΛΕΧΑΙΝΩΝ,21.362818,37.995935
398,ΔΗΜΟΤΙΚΟ ΣΧΟΛΕΙΟ ΚΑΤΩ ΧΩΡΙΟΥ ΙΕΡΑΠΕΤΡΑΣ,25.794411,35.05675
399,ΔΗΜΟΤΙΚΟ ΣΧΟΛΕΙΟ ΑΓΙΟΥ ΙΩΑΝΝΟΥ ΠΥΡΓΟΥ,21.387851,37.678303
400,8ο ΔΗΜΟΤΙΚΟ ΣΧΟΛΕΙΟ ΠΥΡΓΟΥ,,
401,6ο ΔΗΜΟΤΙΚΟ ΣΧΟΛΕΙΟ ΠΥΡΓΟΥ,,
402,ΔΗΜΟΤΙΚΟ ΣΧΟΛΕΙΟ ΒΕΛΑΝΙΔΙΟΥ ΑΜΑΛΙΑΔΑΣ,21.509309,37.888089
403,ΔΗΜΟΤΙΚΟ ΣΧΟΛΕΙΟ ΚΟΛΙΡΙΟΥ ΠΥΡΓΟΥ,21.476528,37.68625
404,ΔΗΜΟΤΙΚΟ ΣΧΟΛΕΙΟ ΑΝΩ ΚΟΥΡΤΕΣΙΟΥ ΛΕΧΑΙΝΩΝ,21.328986,37.965474
405,ΔΗΜΟΤΙΚΟ ΣΧΟΛΕΙΟ ΞΗΡΟΧΩΡΙΟΥ ΟΛΥΜΠΙΑΣ,21.65525,37.507817
406,2ο ΔΗΜΟΤΙΚΟ ΣΧΟΛΕΙΟ ΠΥΡΓΟΥ,21.437096,37.670193
407,ΔΗΜΟΤΙΚΟ ΣΧΟΛΕΙΟ ΜΑΚΡΙΣΙΩΝ ΟΛΥΜΠΙΑΣ,21.605875,37.608355
408,ΔΗΜΟΤΙΚΟ ΣΧΟΛΕΙΟ ΛΕΠΡΕΟΥ ΟΛΥΜΠΙΑΣ,21.722887,37.436071
409,ΔΗΜΟΤΙΚΟ ΣΧΟΛΕΙΟ ΚΡΕΣΤΕΝΩΝ ΟΛΥΜΠΙΑΣ,21.621738,37.59296
410,ΔΗΜΟΤΙΚΟ ΣΧΟΛΕΙΟ ΠΛΑΤΙΑΝΗΣ ΟΛΥΜΠΙΑΣ,21.757857,37.545297
411,ΔΗΜΟΤΙΚΟ ΣΧΟΛΕΙΟ ΝΕΟΧΩΡΙΟΥ ΛΕΧΑΙΝΩΝ,21.204412,37.90521
412,ΔΗΜΟΤΙΚΟ ΣΧΟΛΕΙΟ ΠΟΜΠΙΑΣ,24.868546,35.008797
413,ΔΗΜΟΤΙΚΟ ΣΧΟΛΕΙΟ ΑΓΙΟΥ ΓΕΩΡΓΙΟΥ ΠΥΡΓΟΥ ΠΥΡΓΟΥ,,
414,7ο ΔΗΜΟΤΙΚΟ ΣΧΟΛΕΙΟ ΠΥΡΓΟΥ,,
415,ΔΗΜΟΤΙΚΟ ΣΧΟΛΕΙΟ ΚΑΣΤΡΟΥ ΛΕΧΑΙΝΩΝ,21.139544,37.890154
416,ΔΗΜΟΤΙΚΟ ΣΧΟΛΕΙΟ ΚΑΒΑΣΙΛΩΝ ΛΕΧΑΙΝΩΝ,21.266409,37.875871
417,ΔΗΜΟΤΙΚΟ ΣΧΟΛΕΙΟ ΨΑΡΙ ΛΕΧΑΙΝΩΝ,,
418,ΔΗΜΟΤΙΚΟ ΣΧΟΛΕΙΟ ΚΕΝΤΡΟΥ,21.448007,37.897151
419,1ο ΔΗΜΟΤΙΚΟ ΣΧΟΛΕΙΟ ΠΥΡΓΟΥ,21.425754,37.669865
420,ΔΗΜΟΤΙΚΟ ΣΧΟΛΕΙΟ ΚΟΥΡΤΕΣΙΟΥ,21.328976,37.96546
421,ΔΗΜΟΤΙΚΟ ΣΧΟΛΕΙΟ ΝΕΑΣ ΜΑΝΟΛΑΔΑΣ ΛΕΧΑΙΝΩΝ,21.38499,38.052188
422,ΔΗΜΟΤΙΚΟ ΣΧΟΛΕΙΟ ΝΕΑΠΟΛΗΣ ΛΕΧΑΙΝΩΝ,21.417374,38.017094
423,ΔΗΜΟΤΙΚΟ ΣΧΟΛΕΙΟ ΜΥΡΣΙΝΗΣ ΛΕΧΑΙΝΩΝ,21.237161,37.920996
424,ΔΗΜΟΤΙΚΟ ΣΧΟΛΕΙΟ ΜΠΟΡΣΙΟΥ ΛΕΧΑΙΝΩΝ,,
425,ΔΗΜΟΤΙΚΟ ΣΧΟΛΕΙΟ ΚΑΙΑΦΑ ΟΛΥΜΠΙΑΣ,,
426,ΔΗΜΟΤΙΚΟ ΣΧΟΛΕΙΟ ΦΩΛΕΑΣ ΜΕΙΟΝΟΤΙΚΟ,,
427,ΔΗΜΟΤΙΚΟ ΣΧΟΛΕΙΟ ΚΥΛΛΗΝΗΣ ΛΕΧΑΙΝΩΝ,21.144102,37.932299
428,ΔΗΜΟΤΙΚΟ ΣΧΟΛΕΙΟ ΒΥΤΙΝΕΙΚΩΝ ΠΥΡΓΟΥ,21.388475,37.682414
429,ΔΗΜΟΤΙΚΟ ΣΧΟΛΕΙΟ ΒΑΡΔΑΣ ΛΕΧΑΙΝΩΝ,21.364201,38.03167
430,ΔΗΜΟΤΙΚΟ ΣΧΟΛΕΙΟ ΚΟΥΜΑΝΗ ΠΥΡΓΟΥ,21.759373,37.789209
431,ΔΗΜΟΤΙΚΟ ΣΧΟΛΕΙΟ ΒΑΡΒΑΣΑΙΝΑΣ ΠΥΡΓΟΥ,21.501719,37.669692
432,ΔΗΜΟΤΙΚΟ ΣΧΟΛΕΙΟ ΩΛΕΝΗΣ ΠΥΡΓΟΥ,,
433,ΔΗΜΟΤΙΚΟ ΣΧΟΛΕΙΟ ΧΑΝΑΚΙΩΝ ΠΥΡΓΟΥ,21.390579,37.737825
434,ΔΗΜΟΤΙΚΟ ΣΧΟΛΕΙΟ ΑΝΤΙΡΡΙΟΥ,21.762593,38.333629
435,4ο ΔΗΜΟΤΙΚΟ ΣΧΟΛΕΙΟ ΝΑΥΠΑΚΤΟΥ,,
436,ΔΗΜΟΤΙΚΟ ΣΧΟΛΕΙΟ ΚΑΜΠΟΥ ΣΤΡΑΝΩΜΑΣ,,
437,ΔΗΜΟΤΙΚΟ ΣΧΟΛΕΙΟ ΠΕΡΔΙΚΑΚΙΟΥ ΑΜΦΙΛΟΧ,21.367105,39.049642
438,7ο ΔΗΜΟΤΙΚΟ ΣΧΟΛΕΙΟ ΝΑΥΠΑΚΤΟΥ,,
439,ΔΗΜΟΤΙΚΟ ΣΧΟΛΕΙΟ ΠΟΡΠΗΣ ΜΕΙΟΝΟΤΙΚΟ,,
440,ΔΗΜΟΤΙΚΟ ΣΧΟΛΕΙΟ ΧΑΛΙΚΙΟΥ ΑΙΤΩΛΙΚΟΥ ΜΕΣΟΛ,,
441,3ο ΔΗΜΟΤΙΚΟ ΣΧΟΛΕΙΟ ΑΙΤΩΛΙΚΟΥ,,
442,ΔΗΜΟΤΙΚΟ ΣΧΟΛΕΙΟ ΣΚΑΛΑΣ,21.843562,38.421749
443,ΔΗΜΟΤΙΚΟ ΣΧΟΛΕΙΟ ΡΗΓΑΝΙΟΥ,21.760506,38.424124
444,ΔΗΜΟΤΙΚΟ ΣΧΟΛΕΙΟ ΠΑΠΑΔΑΤΟΥ ΞΗΡΟΜΕΡΟΥ,21.173194,38.708091
445,ΔΗΜΟΤΙΚΟ ΣΧΟΛΕΙΟ ΡΙΒΙΟΥ ΞΗΡΟΜΕΡΟΥ,,
446,ΔΗΜΟΤΙΚΟ ΣΧΟΛΕΙΟ ΑΓΙΟΥ ΒΛΑΣΙΟΥ,,
447,ΔΗΜΟΤΙΚΟ ΣΧΟΛΕΙΟ ΜΙΚΡΟΥ ΔΟΥΚΑΤΟΥ ΜΕΙΟΝΟΤΙΚΟ,,
448,ΔΗΜΟΤΙΚΟ ΣΧΟΛΕΙΟ ΠΑΤΡΑΣ ΕΙΔΙΚΟ ΠΙΚΠΑ,,
449,ΔΗΜΟΤΙΚΟ ΣΧΟΛΕΙΟ ΠΑΓΟΥΡΙΩΝ ΜΕΙΟΝΟΤΙΚΟ,,
450,2ο ΔΗΜΟΤΙΚΟ ΣΧΟΛΕΙΟ ΚΑΛΛΥΝΤΗΡΙΟΥ ΜΕΙΟΝΟΤΙΚΟ,,
451,ΔΗΜΟΤΙΚΟ ΣΧΟΛΕΙΟ ΠΛΑΤΑΝΟΥ ΠΥΡΓΟΥ,21.610469,37.665161
452,ΔΗΜΟΤΙΚΟ ΣΧΟΛΕΙΟ ΑΛΦΕΙΟΥΣΗΣ ΟΛΥΜΠΙΑΣ,21.541044,37.639841
453,ΔΗΜΟΤΙΚΟ ΣΧΟΛΕΙΟ ΚΟΥΤΣΟΧΕΡΙΟΥ ΜΕΣΟΛΟΓΓΙΟΥ,,
454,ΔΗΜΟΤΙΚΟ ΣΧΟΛΕΙΟ ΤΡΑΓΑΝΟΥ ΛΕΧΑΙΝΩΝ,,
455,ΔΗΜΟΤΙΚΟ ΣΧΟΛΕΙΟ ΚΛΕΠΑ,21.899005,38.678492
456,ΔΗΜΟΤΙΚΟ ΣΧΟΛΕΙΟ ΣΤΡΕΦΙΟΥ ΠΥΡΓΟΥ,21.551387,37.666451
457,1ο ΔΗΜΟΤΙΚΟ ΣΧΟΛΕΙΟ ΚΑΛΧΑΝΤΟΣ ΜΕΙΟΝΟΤΙΚΟ,25.46512,41.139391
458,ΔΗΜΟΤΙΚΟ ΣΧΟΛΕΙΟ ΜΑΜΟΥΛΑΔΑΣ,21.802136,38.403717
459,3ο ΔΗΜΟΤΙΚΟ ΣΧΟΛΕΙΟ ΝΕΑΠΟΛΗΣ,,
460,ΔΗΜΟΤΙΚΟ ΣΧΟΛΕΙΟ ΣΤΡΟΥΣΙΟΥ ΛΕΧΑΙΝΩΝ,21.23936,37.90987
461,ΔΗΜΟΤΙΚΟ ΣΧΟΛΕΙΟ ΚΑΤΩ ΣΑΜΙΚΟΥ ΟΛΥΜΠΙΑΣ,21.601869,37.539023
462,ΔΗΜΟΤΙΚΟ ΣΧΟΛΕΙΟ ΚΟΥΤΣΟΧΕΡΑΣ ΠΥΡΓΟΥ,21.531322,37.790376
463,ΔΗΜΟΤΙΚΟ ΣΧΟΛΕΙΟ ΔΑΦΝΗΣ ΛΕΧΑΙΝΩΝ,,
464,2ο ΔΗΜΟΤΙΚΟ ΣΧΟΛΕΙΟ ΜΕΣΟΛΟΓΓΙΟΥ ΕΙΔΙΚΟ,,
465,ΔΗΜΟΤΙΚΟ ΣΧΟΛΕΙΟ ΚΑΤΣΑΡΟΥ ΠΥΡΓΟΥ,21.419387,37.720699
466,ΔΗΜΟΤΙΚΟ ΣΧΟΛΕΙΟ ΚΑΛΛΙΘΕΑΣ ΟΛΥΜΠΙΑΣ,21.824156,37.550542
467,2ο ΔΗΜΟΤΙΚΟ ΣΧΟΛΕΙΟ ΛΕΧΑΙΝΩΝ,21.261436,37.937365
468,1ο ΔΗΜΟΤΙΚΟ ΣΧΟΛΕΙΟ ΛΕΧΑΙΝΩΝ,21.26144,37.937515
469,6ο ΔΗΜΟΤΙΚΟ ΣΧΟΛΕΙΟ ΝΑΥΠΑΚΤΟΥ,,
470,ΔΗΜΟΤΙΚΟ ΣΧΟΛΕΙΟ ΝΕΑΣ ΦΥΓΑΛΕΙΑΣ ΟΛΥΜΠΙΑΣ,21.773125,37.438817
471,ΔΗΜΟΤΙΚΟ ΣΧΟΛΕΙΟ ΛΥΣΙΜΑΧΙΑΣ ΜΕΣΟΛΟΓΓΙΟΥ,21.337849,38.544412
472,ΔΗΜΟΤΙΚΟ ΣΧΟΛΕΙΟ ΚΑΤΩ ΚΛΕΙΣΟΡΡΕΥΜΑΤΩΝ ΜΕΣΟΛ,21.378274,38.54131
473,2ο ΔΗΜΟΤΙΚΟ ΣΧΟΛΕΙΟ ΚΑΛΧΑΝΤΟΣ ΜΕΙΟΝΟΤΙΚΟ,25.465117,41.139255
474,ΔΗΜΟΤΙΚΟ ΣΧΟΛΕΙΟ ΓΡΑΜΜΑΤΙΚΟΥΣ ΜΕΣΟΛΟΓΓΙΟΥ,,
475,ΔΗΜΟΤΙΚΟ ΣΧΟΛΕΙΟ ΔΙΑΣΕΛΛΩΝ ΟΛΥΜΠΙΑΣ,21.737678,37.578003
476,ΔΗΜΟΤΙΚΟ ΣΧΟΛΕΙΟ ΚΑΛΑΜΟΚΑΣΤΡΟΥ ΜΕΙΟΝΟΤΙΚΟ,,
477,ΔΗΜΟΤΙΚΟ ΣΧΟΛΕΙΟ ΚΑΡΑΙΪΚΩΝ,,
478,ΔΗΜΟΤΙΚΟ ΣΧΟΛΕΙΟ ΦΛΟΚΑ ΠΥΡΓΟΥ,21.614473,37.644881
479,ΔΗΜΟΤΙΚΟ ΣΧΟΛΕΙΟ ΓΙΑΝΝΙΤΣΟΧΩΡΙΟΥ ΟΛΥΜΠΙΑΣ,21.687664,37.39192
480,ΔΗΜΟΤΙΚΟ ΣΧΟΛΕΙΟ ΑΜΒΡΟΣΙΑΣ ΜΕΙΟΝΟΤΙΚΟ 2Θ,25.235575,41.087773
481,ΔΗΜΟΤΙΚΟ ΣΧΟΛΕΙΟ ΦΑΣΚΟΜΗΛΙΑΣ ΟΛΥΜΠΙΑΣ,,
482,ΔΗΜΟΤΙΚΟ ΣΧΟΛΕΙΟ ΝΗΣΙΟΥ ΛΕΧΑΙΝΩΝ,21.420147,37.983915
483,ΔΗΜΟΤΙΚΟ ΣΧΟΛΕΙΟ ΚΑΜΠΟΥ ΒΑΛΤΟΥ,,
484,ΔΗΜΟΤΙΚΟ ΣΧΟΛΕΙΟ ΑΓΙΟΥ ΝΙΚΟΛΑΟΥ,20.804494,38.868734
485,ΔΗΜΟΤΙΚΟ ΣΧΟΛΕΙΟ ΜΕΓΑΛΟΥ ΔΟΥΚΑΤΟΥ ΜΕΙΟΝΟΤΙΚΟ,,
486,ΔΗΜΟΤΙΚΟ ΣΧΟΛΕΙΟ ΣΠΑΡΤΟΥ ΑΜΦΙΛΟΧ,21.110549,38.900213
487,ΔΗΜΟΤΙΚΟ ΣΧΟΛΕΙΟ ΣΑΡΓΙΑΔΑΣ ΤΡΙΧΩΝΙΔΑΣ,21.414649,38.767538
488,ΔΗΜΟΤΙΚΟ ΣΧΟΛΕΙΟ ΘΥΡΙΟΥ,20.984068,38.857688
489,ΔΗΜΟΤΙΚΟ ΣΧΟΛΕΙΟ ΖΑΧΑΡΩΣ,21.650443,37.485303
490,1ο ΔΗΜΟΤΙΚΟ ΣΧΟΛΕΙΟ ΜΑΚΥΝΕΙΑΣ,,
491,ΔΗΜΟΤΙΚΟ ΣΧΟΛΕΙΟ ΠΡΟΦΗΤΗ ΗΛΙΑ,,
492,ΔΗΜΟΤΙΚΟ ΣΧΟΛΕΙΟ ΠΛΑΤΑΝΙΤΟΥ ΝΑΥΠΑΚΤΙ,,
493,10ο ΔΗΜΟΤΙΚΟ ΣΧΟΛΕΙΟ ΑΓΡΙΝΙΟΥ,21.413627,38.623054
494,ΔΗΜΟΤΙΚΟ ΣΧΟΛΕΙΟ ΞΗΡΟΠΗΓΑΔΟΥ ΝΑΥΠΑΚΤΙ,21.862077,38.401134
495,ΔΗΜΟΤΙΚΟ ΣΧΟΛΕΙΟ ΠΟΤΑΜΙΑΣ ΑΜΦΙΛΟΧ,,
496,ΔΗΜΟΤΙΚΟ ΣΧΟΛΕΙΟ ΛΑΛΑ ΠΥΡΓΟΥ,21.720548,37.70966
497,ΔΗΜΟΤΙΚΟ ΣΧΟΛΕΙΟ ΔΡΥΜΟΥ ΑΜΦΙΛΟΧ,21.021155,38.881004
498,1ο ΔΗΜΟΤΙΚΟ ΣΧΟΛΕΙΟ ΒΟΝΙΤΣΑΣ,20.883443,38.916531
499,ΔΗΜΟΤΙΚΟ ΣΧΟΛΕΙΟ ΠΑΛ. ΚΑΛΛΙΣΤΗΣ ΜΕΙΟΝΟΤΙΚΟ,25.214594,41.033624
500,ΔΗΜΟΤΙΚΟ ΣΧΟΛΕΙΟ ΤΡΙΚΛΙΝΟΥ ΑΜΦΙΛΟΧ,21.444625,38.971833
501,ΔΗΜΟΤΙΚΟ ΣΧΟΛΕΙΟ ΠΑΛΛΑΔΙΟΥ ΜΕΙΟΝΟΤΙΚΟ,,
502,ΔΗΜΟΤΙΚΟ ΣΧΟΛΕΙΟ ΑΝΔΡΙΤΣΑΙΝΗΣ ΟΛΥΜΠΙΑΣ,21.905928,37.48333
503,ΔΗΜΟΤΙΚΟ ΣΧΟΛΕΙΟ ΑΙΓΩΝ ΑΙΓΙΑΛΕΙΑΣ,22.362627,38.101276
504,ΔΗΜΟΤΙΚΟ ΣΧΟΛΕΙΟ ΡΙΟΥ ΠΑΤΡΑΣ,21.781956,38.300043
505,8ο ΔΗΜΟΤΙΚΟ ΣΧΟΛΕΙΟ ΑΙΓΙΟΥ,,
506,9ο ΔΗΜΟΤΙΚΟ ΣΧΟΛΕΙΟ ΑΙΓΙΟΥ,22.077388,38.249387
507,ΔΗΜΟΤΙΚΟ ΣΧΟΛΕΙΟ ΑΓΙΟΥ ΒΑΣΙΛΕΙΟΥ,21.818789,38.311995
508,49ο ΔΗΜΟΤΙΚΟ ΣΧΟΛΕΙΟ ΠΑΤΡΑΣ,21.759714,38.276332
509,7ο ΔΗΜΟΤΙΚΟ ΣΧΟΛΕΙΟ ΑΙΓΙΟΥ,,
510,6ο ΔΗΜΟΤΙΚΟ ΣΧΟΛΕΙΟ ΑΙΓΙΟΥ,,
511,5ο ΔΗΜΟΤΙΚΟ ΣΧΟΛΕΙΟ ΑΙΓΙΟΥ,,
512,ΔΗΜΟΤΙΚΟ ΣΧΟΛΕΙΟ ΑΙΓΕΙΡΑΣ ΑΙΓΙΑΛΕΙΑΣ,22.35041,38.146723
513,4ο ΔΗΜΟΤΙΚΟ ΣΧΟΛΕΙΟ ΑΙΓΙΟΥ,22.073406,38.248465
514,2ο ΔΗΜΟΤΙΚΟ ΣΧΟΛΕΙΟ ΚΕΚΡΟΠΙΑΣ,,
515,2ο ΔΗΜΟΤΙΚΟ ΣΧΟΛΕΙΟ ΘΕΣΤΙΕΩΝ,,
516,16ο ΔΗΜΟΤΙΚΟ ΣΧΟΛΕΙΟ ΑΓΡΙΝΙΟΥ,21.393398,38.629802
517,3ο ΔΗΜΟΤΙΚΟ ΣΧΟΛΕΙΟ ΑΜΦΙΛΟΧΙΑΣ,21.162018,38.8603
518,ΔΗΜΟΤΙΚΟ ΣΧΟΛΕΙΟ ΛΥΓΙΑ,21.853597,38.408379
519,2ο ΔΗΜΟΤΙΚΟ ΣΧΟΛΕΙΟ ΒΟΝΙΤΣΑΣ,20.883427,38.916514
520,ΔΗΜΟΤΙΚΟ ΣΧΟΛΕΙΟ ΛΕΥΚΑΣΙΟΥ ΚΑΛΑΒΡΥΤΩΝ,,
521,34ο ΔΗΜΟΤΙΚΟ ΣΧΟΛΕΙΟ ΠΑΤΡΑΣ,21.750352,38.259768
522,48ο ΔΗΜΟΤΙΚΟ ΣΧΟΛΕΙΟ ΠΑΤΡΑΣ,21.744278,38.26576
523,59ο ΔΗΜΟΤΙΚΟ ΣΧΟΛΕΙΟ ΠΑΤΡΑΣ,,
524,7ο ΔΗΜΟΤΙΚΟ ΣΧΟΛΕΙΟ ΠΑΤΡΑΣ,21.739024,38.24545
525,50ο ΔΗΜΟΤΙΚΟ ΣΧΟΛΕΙΟ ΠΑΤΡΑΣ,21.753472,38.266454
526,4ο ΔΗΜΟΤΙΚΟ ΣΧΟΛΕΙΟ ΠΑΤΡΑΣ,21.735481,38.239622
527,40ο ΔΗΜΟΤΙΚΟ ΣΧΟΛΕΙΟ ΠΑΤΡΑΣ,21.768965,38.278242
528,19ο ΔΗΜΟΤΙΚΟ ΣΧΟΛΕΙΟ ΑΓΡΙΝΙΟΥ,21.406099,38.62825
529,ΔΗΜΟΤΙΚΟ ΣΧΟΛΕΙΟ ΔΡΕΠΑΝΟΥ ΠΑΤΡΑΣ,21.855272,38.317577
530,ΔΗΜΟΤΙΚΟ ΣΧΟΛΕΙΟ ΡΟΔΙΑΣ ΑΙΓΙΑΛΕΙΑΣ,22.157642,38.204506
531,ΔΗΜΟΤΙΚΟ ΣΧΟΛΕΙΟ ΚΑΤΩ ΚΑΣΤΡΙΤΣΙΟΥ,21.802646,38.288305
532,ΔΗΜΟΤΙΚΟ ΣΧΟΛΕΙΟ ΠΑΤΡΑΣ ΕΙΔΙΚΟ ΤΥΦΛΩΝ,,
533,3ο ΔΗΜΟΤΙΚΟ ΣΧΟΛΕΙΟ ΚΑΤΩ ΑΧΑΪΑΣ,21.541727,38.14242
534,ΔΗΜΟΤΙΚΟ ΣΧΟΛΕΙΟ ΡΟΔΟΔΑΦΝΗΣ ΑΙΓΙΑΛΕΙΑΣ,22.049327,38.264061
535,ΔΗΜΟΤΙΚΟ ΣΧΟΛΕΙΟ ΑΒΥΘΟΥ ΑΙΓΙΑΛΕΙΑΣ,,
536,2ο ΔΗΜΟΤΙΚΟ ΣΧΟΛΕΙΟ ΝΕΟΧΩΡΙΟΥ ΜΕΣΟΛΟΓΓΙΟΥ,21.276067,38.406677
537,ΔΗΜΟΤΙΚΟ ΣΧΟΛΕΙΟ ΛΕΧΑΙΝΩΝ ΕΙΔΙΚΟ,,
538,ΔΗΜΟΤΙΚΟ ΣΧΟΛΕΙΟ ΣΕΛΙΑΝΙΤΙΚΩΝ ΑΙΓΙΑΛΕΙΑΣ,22.026873,38.278009
539,ΔΗΜΟΤΙΚΟ ΣΧΟΛΕΙΟ ΝΙΚΟΛΕΙΚΩΝ ΑΙΓΙΑΛΕΙΑΣ,22.142829,38.203938
540,ΔΗΜΟΤΙΚΟ ΣΧΟΛΕΙΟ ΜΕΛΙΣΣΙΩΝ ΑΙΓΙΑΛΕΙΑΣ,22.063643,38.182769
541,ΔΗΜΟΤΙΚΟ ΣΧΟΛΕΙΟ ΜΑΥΡΙΚΙΟΥ ΑΙΓΙΑΛΕΙΑΣ,22.064799,38.207183
542,ΔΗΜΟΤΙΚΟ ΣΧΟΛΕΙΟ ΛΟΓΓΟΥ ΑΙΓΙΑΛΕΙΑΣ,22.018282,38.294195
543,ΔΗΜΟΤΙΚΟ ΣΧΟΛΕΙΟ ΚΡΗΝΗΣ ΑΙΓΙΟΥ,21.958893,38.189214
544,4ο ΔΗΜΟΤΙΚΟ ΣΧΟΛΕΙΟ ΠΑΤΡΑΣ ΕΙΔΙΚΟ,21.744243,38.235123
545,ΔΗΜΟΤΙΚΟ ΣΧΟΛΕΙΟ ΣΚΕΠΑΣΤΟΥ ΚΑΛΑΒΡΥΤΩΝ,22.073646,38.040393
546,1ο ΔΗΜΟΤΙΚΟ ΣΧΟΛΕΙΟ ΑΙΓΙΟΥ ΕΙΔΙΚΟ,,
547,68ο ΔΗΜΟΤΙΚΟ ΣΧΟΛΕΙΟ ΠΑΤΡΑΣ,21.721589,38.221304
548,66ο ΔΗΜΟΤΙΚΟ ΣΧΟΛΕΙΟ ΠΑΤΡΑΣ,21.741721,38.256639
549,ΔΗΜΟΤΙΚΟ ΣΧΟΛΕΙΟ ΜΕΛΕΤΗΣ ΜΕΙΟΝΟΤΙΚΟ,,
550,67ο ΔΗΜΟΤΙΚΟ ΣΧΟΛΕΙΟ ΠΑΤΡΑΣ,21.731701,38.219459
551,70ο ΔΗΜΟΤΙΚΟ ΣΧΟΛΕΙΟ ΠΑΤΡΑΣ ΕΛΕΚΙΣΤΡΑΣ,,
552,69ο ΔΗΜΟΤΙΚΟ ΣΧΟΛΕΙΟ ΠΑΤΡΩΝ,,
553,2ο ΔΗΜΟΤΙΚΟ ΣΧΟΛΕΙΟ ΑΚΡΑΤΑΣ,22.315177,38.151457
554,21ο ΔΗΜΟΤΙΚΟ ΣΧΟΛΕΙΟ ΑΓΡΙΝΙΟΥ,21.410697,38.61937
555,65ο ΔΗΜΟΤΙΚΟ ΣΧΟΛΕΙΟ ΠΑΤΡΑΣ,,
556,19ο ΔΗΜΟΤΙΚΟ ΣΧΟΛΕΙΟ ΠΑΤΡΑΣ,21.727432,38.23537
557,1ο ΔΗΜΟΤΙΚΟ ΣΧΟΛΕΙΟ ΒΑΚΚΟΥ ΜΕΙΟΝΟΤΙΚΟ,,
558,52ο ΔΗΜΟΤΙΚΟ ΣΧΟΛΕΙΟ ΠΑΤΡΑΣ,21.722684,38.21206
559,5ο ΔΗΜΟΤΙΚΟ ΣΧΟΛΕΙΟ ΠΑΤΡΑΣ,21.732491,38.236732
560,47ο ΔΗΜΟΤΙΚΟ ΣΧΟΛΕΙΟ ΠΑΤΡΑΣ,21.72539,38.217702
561,ΔΗΜΟΤΙΚΟ ΣΧΟΛΕΙΟ ΑΠΙΔΕΩΝΑ,21.427633,38.074339
562,24ο ΔΗΜΟΤΙΚΟ ΣΧΟΛΕΙΟ ΠΑΤΡΑΣ,21.731493,38.219155
563,ΔΗΜΟΤΙΚΟ ΣΧΟΛΕΙΟ ΑΡΛΑΣ,21.600356,38.055354
564,3ο ΔΗΜΟΤΙΚΟ ΣΧΟΛΕΙΟ ΠΑΤΡΑΣ,21.736772,38.241208
565,22ο ΔΗΜΟΤΙΚΟ ΣΧΟΛΕΙΟ ΠΑΤΡΑΣ,,
566,ΔΗΜΟΤΙΚΟ ΣΧΟΛΕΙΟ ΠΑΜΦΟΡΟΥ ΜΕΙΟΝΟΤΙΚΟ,,
567,ΔΗΜΟΤΙΚΟ ΣΧΟΛΕΙΟ ΠΛΑΚΑΣ ΚΑΛΑΒΡΥΤΩΝ,21.867443,37.917094
568,ΔΗΜΟΤΙΚΟ ΣΧΟΛΕΙΟ ΠΕΤΣΑΚΩΝ ΚΑΛΑΒΡΥΤΩΝ,22.041819,38.095057
569,ΔΗΜΟΤΙΚΟ ΣΧΟΛΕΙΟ ΦΥΛΑΚΑ ΜΕΙΟΝΟΤΙΚΟ,,
570,36ο ΔΗΜΟΤΙΚΟ ΣΧΟΛΕΙΟ ΠΑΤΡΑΣ,,
571,ΔΗΜΟΤΙΚΟ ΣΧΟΛΕΙΟ ΑΡΑΞΟΥ,21.409733,38.165543
572,ΔΗΜΟΤΙΚΟ ΣΧΟΛΕΙΟ ΣΤΥΛΑΡΙΟΥ ΜΕΙΟΝΟΤΙΚΟ,,
573,2ο ΔΗΜΟΤΙΚΟ ΣΧΟΛΕΙΟ ΑΙΓΙΟΥ,,
574,ΔΗΜΟΤΙΚΟ ΣΧΟΛΕΙΟ ΜΑΝΕΣΙΟΥ ΚΑΛΑΒΡΥΤΩΝ,,
575,ΔΗΜΟΤΙΚΟ ΣΧΟΛΕΙΟ ΒΡΥΣΑΡΙΟΥ ΚΑΛΑΒΡΥΤΩΝ,22.11843,38.027073
576,ΔΗΜΟΤΙΚΟ ΣΧΟΛΕΙΟ ΤΥΧΗΡΟΥ ΜΕΙΟΝΟΤΙΚΟ,,
577,ΔΗΜΟΤΙΚΟ ΣΧΟΛΕΙΟ ΚΕΡΠΙΝΗΣ ΚΑΛΑΒΡΥΤΩΝ,,
578,ΔΗΜΟΤΙΚΟ ΣΧΟΛΕΙΟ ΛΟΥΣΩΝ ΚΑΛΑΒΡΥΤΩΝ,22.141547,38.000636
579,ΔΗΜΟΤΙΚΟ ΣΧΟΛΕΙΟ ΟΜΗΡΙΚΟΥ ΜΕΙΟΝΟΤΙΚΟ,,
580,ΔΗΜΟΤΙΚΟ ΣΧΟΛΕΙΟ ΚΑΛΑΒΡΥΤΩΝ ΚΑΛΑΒΡΥΤΩΝ,22.113208,38.027863
581,ΔΗΜΟΤΙΚΟ ΣΧΟΛΕΙΟ ΒΛΑΣΙΑΣ ΚΑΛΑΒΡΥΤΩΝ,21.908296,37.999097
582,ΔΗΜΟΤΙΚΟ ΣΧΟΛΕΙΟ ΤΕΜΕΝΗΣ ΑΙΓΙΑΛΕΙΑΣ,22.122686,38.234672
583,ΔΗΜΟΤΙΚΟ ΣΧΟΛΕΙΟ ΙΣΑΛΟΥ ΜΕΙΟΝΟΤΙΚΟ,,
584,2ο ΔΗΜΟΤΙΚΟ ΣΧΟΛΕΙΟ ΒΑΚΚΟΥ ΜΕΙΟΝΟΤΙΚΟ,,
585,1ο ΔΗΜΟΤΙΚΟ ΣΧΟΛΕΙΟ ΑΙΓΙΟΥ,22.088238,38.248584
586,ΔΗΜΟΤΙΚΟ ΣΧΟΛΕΙΟ ΑΓΙΟΥ ΕΥΣΤΡΑΤΙΟΥ,24.990754,39.536214
587,3ο ΔΗΜΟΤΙΚΟ ΣΧΟΛΕΙΟ ΑΚΡΑΤΑΣ,22.314953,38.152549
588,3ο ΔΗΜΟΤΙΚΟ ΣΧΟΛΕΙΟ ΑΙΓΙΟΥ,,
589,ΔΗΜΟΤΙΚΟ ΣΧΟΛΕΙΟ ΒΑΛΙΜΗΤΙΚΩΝ ΑΙΓΙΑΛΕΙΑΣ,22.136759,38.232623
590,ΔΗΜΟΤΙΚΟ ΣΧΟΛΕΙΟ ΑΜΠΕΛΟΚΗΠΩΝ ΑΙΓΙΑΛΕΙΑΣ,22.319322,38.096506
591,1ο ΔΗΜΟΤΙΚΟ ΣΧΟΛΕΙΟ ΑΚΡΑΤΑΣ,22.314947,38.152548
592,ΔΗΜΟΤΙΚΟ ΣΧΟΛΕΙΟ ΒΑΣΙΛΙΚΟΥ ΠΑΤΡΑΣ,,
593,44ο ΔΗΜΟΤΙΚΟ ΣΧΟΛΕΙΟ ΠΑΤΡΑΣ,21.761349,38.221715
594,41ο ΔΗΜΟΤΙΚΟ ΣΧΟΛΕΙΟ ΠΑΤΡΑΣ,21.757628,38.223815
595,21ο ΔΗΜΟΤΙΚΟ ΣΧΟΛΕΙΟ ΠΑΤΡΑΣ,21.750547,38.231356
596,33ο ΔΗΜΟΤΙΚΟ ΣΧΟΛΕΙΟ ΠΑΤΡΑΣ,21.740405,38.22039
597,29ο ΔΗΜΟΤΙΚΟ ΣΧΟΛΕΙΟ ΠΑΤΡΑΣ,21.729258,38.227946
598,39ο ΔΗΜΟΤΙΚΟ ΣΧΟΛΕΙΟ ΠΑΤΡΩΝ,,
599,20ο ΔΗΜΟΤΙΚΟ ΣΧΟΛΕΙΟ ΠΑΤΡΑΣ,21.742604,38.243138
600,53ο ΔΗΜΟΤΙΚΟ ΣΧΟΛΕΙΟ ΠΑΤΡΑΣ,21.733001,38.22655
601,45ο ΔΗΜΟΤΙΚΟ ΣΧΟΛΕΙΟ ΠΑΤΡΑΣ,21.748898,38.211427
602,54ο ΔΗΜΟΤΙΚΟ ΣΧΟΛΕΙΟ ΠΑΤΡΑΣ,21.733001,38.226539
603,2ο ΔΗΜΟΤΙΚΟ ΣΧΟΛΕΙΟ ΟΒΡΥΑΣ,,
604,38ο ΔΗΜΟΤΙΚΟ ΣΧΟΛΕΙΟ ΠΑΤΡΑΣ,21.727163,38.235384
605,17ο ΔΗΜΟΤΙΚΟ ΣΧΟΛΕΙΟ ΠΑΤΡΑΣ,21.742911,38.233499
606,25ο ΔΗΜΟΤΙΚΟ ΣΧΟΛΕΙΟ ΠΑΤΡΑΣ,21.744242,38.235171
607,ΔΗΜΟΤΙΚΟ ΣΧΟΛΕΙΟ ΒΡΑΧΝΑΙΙΚΩΝ,21.669267,38.161682
608,ΔΗΜΟΤΙΚΟ ΣΧΟΛΕΙΟ ΑΝΩ ΑΛΙΣΣΟΥ,21.593344,38.136902
609,ΔΗΜΟΤΙΚΟ ΣΧΟΛΕΙΟ ΙΣΩΜΑΤΟΣ ΠΑΤΡΑΣ,,
610,46ο ΔΗΜΟΤΙΚΟ ΣΧΟΛΕΙΟ ΠΑΤΡΑΣ,21.759302,38.23076
611,ΔΗΜΟΤΙΚΟ ΣΧΟΛΕΙΟ ΕΡΥΜΑΝΘΕΙΑΣ ΠΑΤΡΑΣ,21.72581,37.980111
612,51ο ΔΗΜΟΤΙΚΟ ΣΧΟΛΕΙΟ ΠΑΤΡΑΣ,,
613,8ο ΔΗΜΟΤΙΚΟ ΣΧΟΛΕΙΟ ΠΑΤΡΑΣ,21.740507,38.237879
614,ΔΗΜΟΤΙΚΟ ΣΧΟΛΕΙΟ ΛΥΚΟΥΡΙΑΣ ΚΑΛΑΒΡΥΤΩΝ,22.213518,37.860998
615,ΔΗΜΟΤΙΚΟ ΣΧΟΛΕΙΟ ΠΗΓΑΔΙΩΝ,,
616,ΔΗΜΟΤΙΚΟ ΣΧΟΛΕΙΟ ΜΑΥΡΟΜΑΝΔΗΛΑΣ ΠΑΤΡΑΣ,,
617,1ο ΔΗΜΟΤΙΚΟ ΣΧΟΛΕΙΟ ΟΒΡΥΑΣ,,
618,ΔΗΜΟΤΙΚΟ ΣΧΟΛΕΙΟ ΣΤΑΥΡΟΔΡΟΜΙΟΥ,21.679322,37.934875
619,ΔΗΜΟΤΙΚΟ ΣΧΟΛΕΙΟ ΚΡΗΝΗΣ ΠΑΤΡΑΣ,,
620,ΔΗΜΟΤΙΚΟ ΣΧΟΛΕΙΟ ΔΑΦΝΟΥΛΑΣ ΠΑΤΡΑΣ,,
621,61ο ΔΗΜΟΤΙΚΟ ΣΧΟΛΕΙΟ ΠΑΤΡΑΣ,21.733401,38.216252
622,ΔΗΜΟΤΙΚΟ ΣΧΟΛΕΙΟ ΠΑΤΡΑΣ ΠΕΙΡΑΜΑΤΙΚΟ,,
623,32ο ΔΗΜΟΤΙΚΟ ΣΧΟΛΕΙΟ ΠΑΤΡΑΣ,21.740402,38.220328
624,10ο ΔΗΜΟΤΙΚΟ ΣΧΟΛΕΙΟ ΑΙΓΙΟΥ,,
625,ΔΗΜΟΤΙΚΟ ΣΧΟΛΕΙΟ ΔΕΜΕΝΙΚΩΝ,,
626,ΔΗΜΟΤΙΚΟ ΣΧΟΛΕΙΟ ΠΑΤΡΑΣ ΠΕΙΡΑΜΑΤΙΚΟ,,
627,ΔΗΜΟΤΙΚΟ ΣΧΟΛΕΙΟ ΑΣΚΟΥ ΛΑΓΚΑΔΑ,23.388316,40.743559
628,ΔΗΜΟΤΙΚΟ ΣΧΟΛΕΙΟ ΣΑΡΑΒΑΛΙΟΥ ΠΑΤΡΑΣ,,
629,ΔΗΜΟΤΙΚΟ ΣΧΟΛΕΙΟ ΚΑΒΟΥΣΙΟΥ ΙΕΡΑΠΕΤΡΑΣ,25.858746,35.120655
630,ΔΗΜΟΤΙΚΟ ΣΧΟΛΕΙΟ ΦΑΡΡΩΝ ΠΑΤΡΑΣ,,
631,ΔΗΜΟΤΙΚΟ ΣΧΟΛΕΙΟ ΑΣΗΓΩΝΙΑΣ ΑΠΟΚΟΡΩΝΟΥ,,
632,2ο ΔΗΜΟΤΙΚΟ ΣΧΟΛΕΙΟ ΠΑΤΡΑΣ ΕΙΔΙΚΟ,21.74428,38.218544
633,ΔΗΜΟΤΙΚΟ ΣΧΟΛΕΙΟ ΚΡΙΘΑΡΑΚΙΩΝ ΠΑΤΡΑΣ,,
634,ΔΗΜΟΤΙΚΟ ΣΧΟΛΕΙΟ ΚΑΤΩ ΜΑΖΑΡΑΚΙΟΥ ΠΑΤΡΑΣ,21.653147,38.068559
635,60ο ΔΗΜΟΤΙΚΟ ΣΧΟΛΕΙΟ ΠΑΤΡΑΣ,21.736347,38.22032
636,26ο ΔΗΜΟΤΙΚΟ ΣΧΟΛΕΙΟ ΠΑΤΡΑΣ,21.739052,38.254929
637,ΔΗΜΟΤΙΚΟ ΣΧΟΛΕΙΟ ΛΑΟΔΙΚΗΝΟΥ ΚΙΛΚΙΣ,,
638,ΔΗΜΟΤΙΚΟ ΣΧΟΛΕΙΟ ΑΓΙΟΥ ΔΗΜΗΤΡΙΟΥ ΠΑΤΡΑΣ,21.789128,37.990807
639,9ο ΔΗΜΟΤΙΚΟ ΣΧΟΛΕΙΟ ΠΑΤΡΑΣ,21.740507,38.237879
640,ΔΗΜΟΤΙΚΟ ΣΧΟΛΕΙΟ ΣΕΛΛΩΝ ΠΑΤΡΑΣ,21.884043,38.279696
641,ΔΗΜΟΤΙΚΟ ΣΧΟΛΕΙΟ ΣΑΛΜΕΝΙΚΟΥ,21.945113,38.264273
642,ΔΗΜΟΤΙΚΟ ΣΧΟΛΕΙΟ ΣΑΛΠΗΣ ΜΕΙΟΝΟΤΙΚΟ,25.191853,41.051236
643,"ΔΗΜΟΤΙΚΟ ΣΧΟΛΕΙΟ ΖΗΡΙΑΣ ""ΙΩΑΝΝΗΣ ΚΟΥΤΣΟΧΕΡΑΣ""",21.981204,38.298571
644,ΔΗΜΟΤΙΚΟ ΣΧΟΛΕΙΟ ΑΝΩ ΚΑΣΤΡΙΤΣΙΟΥ,21.835795,38.270009
645,35ο ΔΗΜΟΤΙΚΟ ΣΧΟΛΕΙΟ ΠΑΤΡΑΣ,21.743192,38.262163
646,ΔΗΜΟΤΙΚΟ ΣΧΟΛΕΙΟ ΧΑΛΑΝΔΡΙΤΣΗΣ ΠΑΤΡΑΣ,,
647,23ο ΔΗΜΟΤΙΚΟ ΣΧΟΛΕΙΟ ΠΑΤΡΑΣ,21.746173,38.256256
648,11ο ΔΗΜΟΤΙΚΟ ΣΧΟΛΕΙΟ ΠΑΤΡΑΣ,21.735188,38.248448
649,ΔΗΜΟΤΙΚΟ ΣΧΟΛΕΙΟ ΛΑΚΚΟΠΕΤΡΑΣ,21.453392,38.166723
650,42ο ΔΗΜΟΤΙΚΟ ΣΧΟΛΕΙΟ ΠΑΤΡΑΣ,21.749318,38.229615
651,ΔΗΜΟΤΙΚΟ ΣΧΟΛΕΙΟ ΚΟΥΛΟΥΡΑΣ ΑΙΓΙΑΛΕΙΑΣ,22.086713,38.235969
652,ΔΗΜΟΤΙΚΟ ΣΧΟΛΕΙΟ ΑΓΡΙΛΙΑΣ ΠΑΤΡΑΣ,,
653,ΔΗΜΟΤΙΚΟ ΣΧΟΛΕΙΟ ΚΟΥΜΑΡΙ ΑΙΓΙΑΛΕΙΑΣ,22.045327,38.224416
654,ΔΗΜΟΤΙΚΟ ΣΧΟΛΕΙΟ ΨΑΘΟΠΥΡΓΟΥ ΠΑΤΡΑΣ,21.869069,38.322015
655,ΔΗΜΟΤΙΚΟ ΣΧΟΛΕΙΟ ΣΥΜΒΟΛΩΝ ΜΕΙΟΝΟΤΙΚΟ,,
656,ΔΗΜΟΤΙΚΟ ΣΧΟΛΕΙΟ ΕΛΙΚΗΣ ΑΙΓΙΑΛΕΙΑΣ,22.124888,38.214254
657,ΔΗΜΟΤΙΚΟ ΣΧΟΛΕΙΟ ΔΙΑΚΟΠΤΟΥ ΑΙΓΙΑΛΕΙΑΣ,22.201806,38.187771
658,ΔΗΜΟΤΙΚΟ ΣΧΟΛΕΙΟ ΖΑΧΛΩΡΙΤΙΚΩΝ ΑΙΓΙΑΛΕΙΑΣ,22.182888,38.185846
659,ΔΗΜΟΤΙΚΟ ΣΧΟΛΕΙΟ ΕΛΑΙΩΝΑ ΑΙΓΙΑΛΕΙΑΣ,22.170081,38.197027
660,15ο ΔΗΜΟΤΙΚΟ ΣΧΟΛΕΙΟ ΠΑΤΡΑΣ,21.743159,38.232638
661,13ο ΔΗΜΟΤΙΚΟ ΣΧΟΛΕΙΟ ΠΑΤΡΑΣ,21.733267,38.23165
662,1ο ΔΗΜΟΤΙΚΟ ΣΧΟΛΕΙΟ ΠΑΤΡΑΣ,21.742229,38.242277
663,1ο ΔΗΜΟΤΙΚΟ ΣΧΟΛΕΙΟ ΚΑΤΩ ΑΧΑΪΑΣ,21.541846,38.142331
664,ΔΗΜΟΤΙΚΟ ΣΧΟΛΕΙΟ ΜΕΤΟΧΙΟΥ,21.401176,38.125298
665,ΔΗΜΟΤΙΚΟ ΣΧΟΛΕΙΟ ΜΑΤΑΡΑΓΚΑΣ,21.474956,38.020768
666,ΔΗΜΟΤΙΚΟ ΣΧΟΛΕΙΟ ΛΑΠΠΑ,,
667,ΔΗΜΟΤΙΚΟ ΣΧΟΛΕΙΟ ΛΟΥΣΙΚΩΝ,21.594334,38.107916
668,ΔΗΜΟΤΙΚΟ ΣΧΟΛΕΙΟ ΛΙΜΝΟΧΩΡΙΟΥ,,
669,ΔΗΜΟΤΙΚΟ ΣΧΟΛΕΙΟ ΚΑΛΑΜΑΚΙΟΥ,,
670,ΔΗΜΟΤΙΚΟ ΣΧΟΛΕΙΟ ΑΡΑΧΩΒΙΤΙΚΩΝ,21.845751,38.329674
671,2ο ΔΗΜΟΤΙΚΟ ΣΧΟΛΕΙΟ ΚΑΤΩ ΑΧΑΪΑΣ,21.541843,38.142422
672,55ο ΔΗΜΟΤΙΚΟ ΣΧΟΛΕΙΟ ΠΑΤΡΑΣ,21.741233,38.228008
673,43ο ΔΗΜΟΤΙΚΟ ΣΧΟΛΕΙΟ ΠΑΤΡΑΣ,21.763767,38.264635
674,ΔΗΜΟΤΙΚΟ ΣΧΟΛΕΙΟ ΚΑΜΙΝΙΩΝ,21.628098,38.148055
675,ΔΗΜΟΤΙΚΟ ΣΧΟΛΕΙΟ ΚΑΓΚΑΔΙΟΥ,21.451206,38.040732
676,ΔΗΜΟΤΙΚΟ ΣΧΟΛΕΙΟ ΛΑΜΠΡΟΥ ΜΕΙΟΝΟΤΙΚΟ,,
677,ΔΗΜΟΤΙΚΟ ΣΧΟΛΕΙΟ ΕΛΑΙΟΧΩΡΙΟΥ,21.568934,38.080105
678,6ο ΔΗΜΟΤΙΚΟ ΣΧΟΛΕΙΟ ΠΑΤΡΑΣ,21.727446,38.235172
679,ΔΗΜΟΤΙΚΟ ΣΧΟΛΕΙΟ ΚΡΙΝΟΥ,,
680,ΔΗΜΟΤΙΚΟ ΣΧΟΛΕΙΟ ΠΕΤΡΟΧΩΡΙΟΥ,21.544793,38.085486
681,ΔΗΜΟΤΙΚΟ ΣΧΟΛΕΙΟ ΧΑΡΑΥΓΗΣ,21.587302,37.98546
682,ΔΗΜΟΤΙΚΟ ΣΧΟΛΕΙΟ ΦΩΣΤΑΙΝΗΣ,,
683,ΔΗΜΟΤΙΚΟ ΣΧΟΛΕΙΟ ΦΡΑΓΚΑΣ,,
684,2ο ΔΗΜΟΤΙΚΟ ΣΧΟΛΕΙΟ ΠΑΤΡΑΣ,21.735295,38.247508
685,16ο ΔΗΜΟΤΙΚΟ ΣΧΟΛΕΙΟ ΠΑΤΡΑΣ,21.746538,38.26644
686,ΔΗΜΟΤΙΚΟ ΣΧΟΛΕΙΟ ΣΑΓΕΙΚΩΝ,,
687,ΔΗΜΟΤΙΚΟ ΣΧΟΛΕΙΟ ΡΟΙΤΙΚΩΝ,,
688,ΔΗΜΟΤΙΚΟ ΣΧΟΛΕΙΟ ΣΑΝΤΑΜΕΡΙΟΥ,21.57479,37.987219
689,ΔΗΜΟΤΙΚΟ ΣΧΟΛΕΙΟ ΙΑΜΠΟΛΗΣ ΜΕΙΟΝΟΤΙΚΟ,,
690,ΔΗΜΟΤΙΚΟ ΣΧΟΛΕΙΟ ΤΣΟΥΚΑΛΑΙΙΚΩΝ,21.64608,38.155509
691,ΔΗΜΟΤΙΚΟ ΣΧΟΛΕΙΟ ΚΑΡΥΑΣ,,
692,ΔΗΜΟΤΙΚΟ ΣΧΟΛΕΙΟ ΠΕΤΤΑ,21.480731,38.044474
693,2ο ΔΗΜΟΤΙΚΟ ΣΧΟΛΕΙΟ ΠΑΡΑΛΙΑΣ,,
694,1ο ΔΗΜΟΤΙΚΟ ΣΧΟΛΕΙΟ ΠΑΡΑΛΙΑΣ,,
695,ΔΗΜΟΤΙΚΟ ΣΧΟΛΕΙΟ ΚΑΜΑΡΩΝ ΠΑΤΡΑΣ,22.002706,38.298453
696,ΔΗΜΟΤΙΚΟ ΣΧΟΛΕΙΟ ΝΙΦΟΡΕΙΚΩΝ,21.524506,38.143041
697,ΔΗΜΟΤΙΚΟ ΣΧΟΛΕΙΟ ΜΙΝΤΙΛΟΓΛΙΟΥ,,
698,ΔΗΜΟΤΙΚΟ ΣΧΟΛΕΙΟ ΡΙΟΛΟΥ,21.465131,38.056794
699,57ο ΔΗΜΟΤΙΚΟ ΣΧΟΛΕΙΟ ΠΑΤΡΑΣ,21.744605,38.248781
700,1ο ΔΗΜΟΤΙΚΟ ΣΧΟΛΕΙΟ ΠΑΤΡΑΣ ΕΙΔΙΚΟ,21.75731,38.270717
701,2ο ΔΗΜΟΤΙΚΟ ΣΧΟΛΕΙΟ ΒΑΡΘΟΛΟΜΙΟΥ,21.206938,37.860173
702,64ο ΔΗΜΟΤΙΚΟ ΣΧΟΛΕΙΟ ΠΑΤΡΑΣ,21.739624,38.264112
703,ΔΗΜΟΤΙΚΟ ΣΧΟΛΕΙΟ ΑΓΓΕΛΟΚΑΣΤΡΟΥ ΜΕΣΟΛΟΓΓΙΟΥ,21.298558,38.56609
704,4ο ΔΗΜΟΤΙΚΟ ΣΧΟΛΕΙΟ ΜΕΣΟΛΟΓΓΙΟΥ,,
705,ΔΗΜΟΤΙΚΟ ΣΧΟΛΕΙΟ ΠΙΤΣΙΝΕΙΚΩΝ ΝΑΥΠΑΚΤΙΑΣ,21.741237,38.437599
706,ΔΗΜΟΤΙΚΟ ΣΧΟΛΕΙΟ ΠΑΛΙΑΜΠΕΛΩΝ ΑΜΦΙΛΟΧΙΑΣ,20.952498,38.911741
707,ΔΗΜΟΤΙΚΟ ΣΧΟΛΕΙΟ ΛΑΝΤΖΟΙΟΥ ΠΥΡΓΟΥ,21.561967,37.70662
708,ΔΗΜΟΤΙΚΟ ΣΧΟΛΕΙΟ ΠΑΛΑΙΟΒΑΡΒΑΣΑΙΝΗΣ ΠΥΡΓΟΥ,21.524563,37.677404
709,ΔΗΜΟΤΙΚΟ ΣΧΟΛΕΙΟ ΜΕΝΙΔΙΟΥ ΑΜΦΙΛΟΧ,21.119691,39.041091
710,ΔΗΜΟΤΙΚΟ ΣΧΟΛΕΙΟ ΜΑΡΛΕΣΙΟΥ ΑΜΦΙΛΟΧ,,
711,ΔΗΜΟΤΙΚΟ ΣΧΟΛΕΙΟ ΜΑΥΡΟΜΑΤΙΟΥ ΜΕΙΟΝΟΤΙΚΟ,,
712,ΔΗΜΟΤΙΚΟ ΣΧΟΛΕΙΟ ΑΜΑΡΑΝΤΩΝ ΜΕΙΟΝΟΤΙΚΟ,25.498014,41.04931
713,58ο ΔΗΜΟΤΙΚΟ ΣΧΟΛΕΙΟ ΠΑΤΡΑΣ,21.741766,38.256716
714,ΔΗΜΟΤΙΚΟ ΣΧΟΛΕΙΟ ΓΟΜΟΣΤΟΥ,,
715,ΔΗΜΟΤΙΚΟ ΣΧΟΛΕΙΟ ΟΧΘΙΩΝ ΒΑΛΤΟΥ,21.287162,38.6565
716,ΔΗΜΟΤΙΚΟ ΣΧΟΛΕΙΟ ΠΕΡΑΤΙΑΣ,20.743843,38.821607
717,ΔΗΜΟΤΙΚΟ ΣΧΟΛΕΙΟ ΑΡΧΑΙΑΣ ΟΛΥΜΠΙΑΣ ΠΥΡΓΟΥ,21.626401,37.642885
718,ΔΗΜΟΤΙΚΟ ΣΧΟΛΕΙΟ ΑΓΙΟΥ ΒΑΣΙΛΕΙΟΥ,,
719,ΔΗΜΟΤΙΚΟ ΣΧΟΛΕΙΟ ΚΡΕΣΤΕΝΩΝ ΕΙΔΙΚΟ,,
720,9ο ΔΗΜΟΤΙΚΟ ΣΧΟΛΕΙΟ ΠΥΡΓΟΥ,,
721,1ο ΔΗΜΟΤΙΚΟ ΣΧΟΛΕΙΟ ΑΡΙΣΒΗΣ ΜΕΙΟΝΟΤΙΚΟ,25.59052,41.069011
722,ΔΗΜΟΤΙΚΟ ΣΧΟΛΕΙΟ ΑΓΙΟΥ ΑΝΔΡΕΟΥ ΜΕΣΟΛΟΓΓΙΟΥ,21.554606,38.526109
723,ΔΗΜΟΤΙΚΟ ΣΧΟΛΕΙΟ ΜΗΛΕΩΝ ΠΥΡΓΟΥ,21.695764,37.734244
724,ΔΗΜΟΤΙΚΟ ΣΧΟΛΕΙΟ ΦΥΤΕΙΩΝ ΞΗΡΟΜΕΡΟΥ,21.185233,38.693698
725,14ο ΔΗΜΟΤΙΚΟ ΣΧΟΛΕΙΟ ΠΑΤΡΑΣ,21.715476,38.213542
726,ΔΗΜΟΤΙΚΟ ΣΧΟΛΕΙΟ ΠΡΟΔΡΟΜΟΥ,,
727,27ο ΔΗΜΟΤΙΚΟ ΣΧΟΛΕΙΟ ΠΑΤΡΑΣ,21.73253,38.236524
728,ΔΗΜΟΤΙΚΟ ΣΧΟΛΕΙΟ ΚΑΤΩ ΑΛΙΣΣΟΥ,21.576316,38.140394
729,ΔΗΜΟΤΙΚΟ ΣΧΟΛΕΙΟ ΣΙΤΟΜΕΝΩΝ,21.534179,38.716884
730,ΔΗΜΟΤΙΚΟ ΣΧΟΛΕΙΟ ΝΑΥΠΑΚΤΟΥ ΕΙΔΙΚΟ,,
731,ΔΗΜΟΤΙΚΟ ΣΧΟΛΕΙΟ ΚΟΝΟΠΙΝΑΣ ΞΗΡΟΜΕΡΟΥ,21.132507,38.750447
732,ΔΗΜΟΤΙΚΟ ΣΧΟΛΕΙΟ ΚΑΥΚΩΝΙΑΣ ΠΥΡΓΟΥ,21.616405,37.685983
733,ΔΗΜΟΤΙΚΟ ΣΧΟΛΕΙΟ ΣΚΟΤΑΝΗΣ ΚΑΛΑΒΡΥΤΩΝ,,
734,ΔΗΜΟΤΙΚΟ ΣΧΟΛΕΙΟ ΑΡΑΤΟΥ ΜΕΙΟΝΟΤΙΚΟ,25.55365,41.081213
735,12ο ΔΗΜΟΤΙΚΟ ΣΧΟΛΕΙΟ ΠΑΤΡΑΣ,21.732506,38.236618
736,10ο ΔΗΜΟΤΙΚΟ ΣΧΟΛΕΙΟ ΠΑΤΡΑΣ,21.728838,38.241068
737,ΔΗΜΟΤΙΚΟ ΣΧΟΛΕΙΟ ΣΤΡΑΤΟΥ ΒΑΛΤΟΥ ΑΜΦΙΛΟΧΙΑΣ,21.32017,38.671483
738,5ο ΔΗΜΟΤΙΚΟ ΣΧΟΛΕΙΟ ΝΑΥΠΑΚΤΟΥ,,
739,ΔΗΜΟΤΙΚΟ ΣΧΟΛΕΙΟ ΠΛΑΓΙΑΣ,20.780482,38.805978
740,2ο ΔΗΜΟΤΙΚΟ ΣΧΟΛΕΙΟ ΑΓΡΙΝΙΟΥ ΕΙΔΙΚΟ,,
741,ΔΗΜΟΤΙΚΟ ΣΧΟΛΕΙΟ ΑΜΑΛΙΑΔΑΣ,,
742,ΔΗΜΟΤΙΚΟ ΣΧΟΛΕΙΟ ΔΟΚΟΥ ΜΕΙΟΝΟΤΙΚΟ,,
743,ΔΗΜΟΤΙΚΟ ΣΧΟΛΕΙΟ ΛΕΣΙΝΙΟΥ ΞΗΡΟΜΕΡΟΥ,21.230196,38.452116
744,4ο ΔΗΜΟΤΙΚΟ ΣΧΟΛΕΙΟ ΑΓΡΙΝΙΟΥ,21.404994,38.623768
745,3ο ΔΗΜΟΤΙΚΟ ΣΧΟΛΕΙΟ ΑΓΡΙΝΙΟΥ,21.410697,38.61937
746,ΔΗΜΟΤΙΚΟ ΣΧΟΛΕΙΟ ΜΕΣΗΜΒΡΙΑΣ ΜΕΙΟΝΟΤΙΚΟ,,
747,ΔΗΜΟΤΙΚΟ ΣΧΟΛΕΙΟ ΔΙΚΕΛΩΝ ΜΕΙΟΝΟΤΙΚΟ,,
748,ΔΗΜΟΤΙΚΟ ΣΧΟΛΕΙΟ ΚΑΝΔΗΛΑΣ,20.940206,38.703102
749,5ο ΔΗΜΟΤΙΚΟ ΣΧΟΛΕΙΟ ΑΓΡΙΝΙΟΥ,21.406262,38.62828
750,ΔΗΜΟΤΙΚΟ ΣΧΟΛΕΙΟ ΔΟΚΙΜΙΟΥ ΤΡΙΧΩΝΙΔΑΣ,21.382037,38.614634
751,"2ο ΔΗΜΟΤΙΚΟ ΣΧΟΛΕΙΟ ΝΑΥΠΑΚΤΟΥ ""ΓΙΑΝΝΗΣ ΒΛΑΧΟΓΙΑΝΝΗΣ""",,
752,6ο ΔΗΜΟΤΙΚΟ ΣΧΟΛΕΙΟ ΜΕΣΟΛΟΓΓΙΟΥ,,
753,ΔΗΜΟΤΙΚΟ ΣΧΟΛΕΙΟ ΑΛΚΥΟΝΗΣ ΜΕΙΟΝΟΤΙΚΟ,,
754,ΔΗΜΟΤΙΚΟ ΣΧΟΛΕΙΟ ΑΓΙΑΣ ΣΟΦΙΑΣ,21.647748,38.581488
755,3ο ΔΗΜΟΤΙΚΟ ΣΧΟΛΕΙΟ ΜΕΣΟΛΟΓΓΙΟΥ,21.434995,38.374733
756,ΔΗΜΟΤΙΚΟ ΣΧΟΛΕΙΟ ΡΙΓΑΝΗΣ ΞΗΡΟΜΕΡΟΥ,21.239361,38.580076
757,ΔΗΜΟΤΙΚΟ ΣΧΟΛΕΙΟ ΒΕΛΟΧΩΡΙΟΥ ΜΕΙΟΝΟΤΙΚΟ,,
758,ΔΗΜΟΤΙΚΟ ΣΧΟΛΕΙΟ ΚΑΤΩ ΤΡΑΓΑΝΑΣ ΠΑΡΑΒΟΛΑΣ,21.56626,38.67626
759,ΔΗΜΟΤΙΚΟ ΣΧΟΛΕΙΟ ΠΑΡΑΒΟΛΑΣ,21.52544,38.613041
760,ΔΗΜΟΤΙΚΟ ΣΧΟΛΕΙΟ ΠΕΤΡΟΧΩΡΙΟΥ,21.650333,38.544587
761,ΔΗΜΟΤΙΚΟ ΣΧΟΛΕΙΟ ΚΑΜΑΡΟΥΛΑΣ,21.446765,38.628465
762,ΔΗΜΟΤΙΚΟ ΣΧΟΛΕΙΟ ΚΥΨΕΛΗΣ,21.268618,38.682006
763,ΔΗΜΟΤΙΚΟ ΣΧΟΛΕΙΟ ΚΑΣΤΡΑΚΙΟΥ ΒΑΛΤΟΥ ΑΜΦΙΛΟΧΙ,21.3482,38.736497
764,ΔΗΜΟΤΙΚΟ ΣΧΟΛΕΙΟ ΧΡΥΣΟΒΙΤΣΗΣ,21.147363,38.586036
765,ΔΗΜΟΤΙΚΟ ΣΧΟΛΕΙΟ ΛΕΠΕΝΟΥΣ ΒΑΛΤΟΥ ΑΜΦΙΛΟΧΙΑΣ,21.291179,38.708956
766,ΔΗΜΟΤΙΚΟ ΣΧΟΛΕΙΟ ΔΟΥΝΑΙΙΚΩΝ,21.331961,37.739804
767,1ο ΔΗΜΟΤΙΚΟ ΣΧΟΛΕΙΟ ΑΓΡΙΝΙΟΥ ΕΙΔΙΚΟ,,
768,ΔΗΜΟΤΙΚΟ ΣΧΟΛΕΙΟ ΛΑΝΘΙΟΥ ΠΥΡΓΟΥ,21.519415,37.703517
769,ΔΗΜΟΤΙΚΟ ΣΧΟΛΕΙΟ ΣΜΙΛΑ ΠΥΡΓΟΥ,21.554532,37.676962
770,1ο ΔΗΜΟΤΙΚΟ ΣΧΟΛΕΙΟ ΠΑΝΑΙΤΩΛΙΟΥ,21.445999,38.579342
771,2ο ΔΗΜΟΤΙΚΟ ΣΧΟΛΕΙΟ ΠΑΝΑΙΤΩΛΙΟΥ,21.445989,38.579329
772,ΔΗΜΟΤΙΚΟ ΣΧΟΛΕΙΟ ΜΑΚΡΥΡΡΑΧΗΣ,22.156407,39.086577
773,ΔΗΜΟΤΙΚΟ ΣΧΟΛΕΙΟ ΠΑΝΤΑΝΑΣΣΑΣ,21.560437,38.602143
774,ΔΗΜΟΤΙΚΟ ΣΧΟΛΕΙΟ ΛΕΥΚΑΣ ΤΡΙΧΩΝΙΔΑΣ,,
775,ΔΗΜΟΤΙΚΟ ΣΧΟΛΕΙΟ ΣΤΑΝΟΥ ΑΜΦΙΛΟΧ,21.174482,38.802099
776,ΔΗΜΟΤΙΚΟ ΣΧΟΛΕΙΟ ΠΛΑΤΑΝΟΥ ΣΑΜΟΥ,26.747298,37.736603
777,ΔΗΜΟΤΙΚΟ ΣΧΟΛΕΙΟ ΜΟΝΗΣ ΑΓ ΝΙΚΟΛΑΟΥ ΣΠΑΤΩΝ,,
778,37ο ΔΗΜΟΤΙΚΟ ΣΧΟΛΕΙΟ ΠΑΤΡΑΣ,21.727145,38.235172
779,18ο ΔΗΜΟΤΙΚΟ ΣΧΟΛΕΙΟ ΠΑΤΡΑΣ,21.725918,38.2142
780,ΔΗΜΟΤΙΚΟ ΣΧΟΛΕΙΟ ΣΑΡΔΗΝΙΩΝ ΑΜΦΙΛΟΧ,21.203712,38.890142
781,ΔΗΜΟΤΙΚΟ ΣΧΟΛΕΙΟ ΝΕΜΟΥΤΑΣ ΠΥΡΓΟΥ,21.793666,37.698585
782,ΔΗΜΟΤΙΚΟ ΣΧΟΛΕΙΟ ΚΕΦΑΛΟΒΡΥΣΟΥ ΑΙΤΩΛΙΚΟΥ ΜΕΣ,,
783,ΔΗΜΟΤΙΚΟ ΣΧΟΛΕΙΟ ΚΑΛΥΒΙΩΝ ΑΣΤΡΑ ΠΥΡΓΟΥ,,
784,62ο ΔΗΜΟΤΙΚΟ ΣΧΟΛΕΙΟ ΠΑΤΡΑΣ,21.763497,38.280077
785,ΔΗΜΟΤΙΚΟ ΣΧΟΛΕΙΟ ΓΑΥΡΟΛΙΜΝΗΣ ΝΑΥΠΑΚΤΙΑΣ,21.626713,38.382647
786,ΔΗΜΟΤΙΚΟ ΣΧΟΛΕΙΟ ΓΟΥΡΙΩΤΙΣΣΑΣ ΞΗΡΟΜΕΡΟΥ,21.224455,38.613408
787,ΔΗΜΟΤΙΚΟ ΣΧΟΛΕΙΟ ΧΕΛΙΔΟΝΙΟΥ ΠΥΡΓΟΥ,21.623075,37.712651
788,56ο ΔΗΜΟΤΙΚΟ ΣΧΟΛΕΙΟ ΠΑΤΡΑΣ,21.741682,38.256551
789,ΔΗΜΟΤΙΚΟ ΣΧΟΛΕΙΟ ΑΓΝΑΝΤΩΝ,21.62295,37.820887
790,31ο ΔΗΜΟΤΙΚΟ ΣΧΟΛΕΙΟ ΠΑΤΡΑΣ,21.739186,38.254754
791,ΔΗΜΟΤΙΚΟ ΣΧΟΛΕΙΟ ΑΓΙΟΥ ΝΙΚΟΛΑΟΥ,21.457711,38.636953
792,ΔΗΜΟΤΙΚΟ ΣΧΟΛΕΙΟ ΚΑΝΑΛΟΥ ΒΑΛΤΟΥ ΑΜΦΙΛΟΧΙΑΣ,,
793,ΔΗΜΟΤΙΚΟ ΣΧΟΛΕΙΟ ΤΡΙΚΟΡΦΟΥ ΝΑΥΠΑΚΤΙΑΣ ΜΕΣ,21.641513,38.409121
794,ΔΗΜΟΤΙΚΟ ΣΧΟΛΕΙΟ ΑΜΟΡΓΙΑΝΩΝ,21.361126,38.864847
795,ΔΗΜΟΤΙΚΟ ΣΧΟΛΕΙΟ ΜΠΟΥΚΑΣ ΑΜΦΙΛΟΧ,,
796,2ο ΔΗΜΟΤΙΚΟ ΣΧΟΛΕΙΟ ΝΕΑΠΟΛΗΣ,,
797,3ο ΔΗΜΟΤΙΚΟ ΣΧΟΛΕΙΟ ΝΑΥΠΑΚΤΟΥ,21.837463,38.394146
798,ΔΗΜΟΤΙΚΟ ΣΧΟΛΕΙΟ ΑΓΙΟΥ ΓΕΩΡΓΙΟΥ ΚΑΛΥΒΙΩΝ ΤΡ,,
799,ΔΗΜΟΤΙΚΟ ΣΧΟΛΕΙΟ ΘΕΡΜΟΥ,21.667849,38.572051
800,2ο ΔΗΜΟΤΙΚΟ ΣΧΟΛΕΙΟ ΜΥΡΤΕΑΣ,21.61803,38.586624
801,1ο ΔΗΜΟΤΙΚΟ ΣΧΟΛΕΙΟ ΜΥΡΤΕΑΣ,21.617898,38.586377
802,ΔΗΜΟΤΙΚΟ ΣΧΟΛΕΙΟ ΚΑΤΩ ΧΡΥΣΟΒΙΤΣΗΣ,21.7026,38.559195
803,ΔΗΜΟΤΙΚΟ ΣΧΟΛΕΙΟ ΚΑΛΥΒΙΩΝ ΤΡΙΧΩΝΙΔΑΣ,21.294282,38.616129
804,11ο ΔΗΜΟΤΙΚΟ ΣΧΟΛΕΙΟ ΑΓΡΙΝΙΟΥ,21.409599,38.616647
805,9ο ΔΗΜΟΤΙΚΟ ΣΧΟΛΕΙΟ ΑΓΡΙΝΙΟΥ,,
806,ΔΗΜΟΤΙΚΟ ΣΧΟΛΕΙΟ ΚΑΤΩ ΜΑΚΡΥΝΟΥΣ ΜΕΣΟΛΟΓΓΙΟΥ,21.62438,38.486621
807,ΔΗΜΟΤΙΚΟ ΣΧΟΛΕΙΟ ΚΑΚΟΒΑΤΟΥ ΟΛΥΜΠΙΑΣ,21.644426,37.457895
808,2ο ΔΗΜΟΤΙΚΟ ΣΧΟΛΕΙΟ ΑΜΦΙΛΟΧΙΑΣ,21.162018,38.860301
809,1ο ΔΗΜΟΤΙΚΟ ΣΧΟΛΕΙΟ ΑΜΦΙΛΟΧΙΑΣ,21.162018,38.860301
810,ΔΗΜΟΤΙΚΟ ΣΧΟΛΕΙΟ ΑΝΩ ΚΕΡΑΣΟΒΟΥ,21.445438,38.487706
811,ΔΗΜΟΤΙΚΟ ΣΧΟΛΕΙΟ ΠΛΑΤΑΝΟΥ ΚΑΛΥΒΙΩΝ ΤΡΙΧΩΝΙΔ,,
812,ΔΗΜΟΤΙΚΟ ΣΧΟΛΕΙΟ ΜΑΛΕΣΙΑΔΑΣ ΑΜΦΙΛΟΧΙΑΣ,21.333611,38.90002
813,ΔΗΜΟΤΙΚΟ ΣΧΟΛΕΙΟ ΓΡΥΛΛΟΥ ΟΛΥΜΠΙΑΣ,21.670916,37.579479
814,ΔΗΜΟΤΙΚΟ ΣΧΟΛΕΙΟ ΒΡΙΝΑΣ ΟΛΥΜΠΙΑΣ,21.639011,37.56869
815,ΔΗΜΟΤΙΚΟ ΣΧΟΛΕΙΟ ΣΚΟΥΤΕΡΑΣ,21.475437,38.68661
816,ΔΗΜΟΤΙΚΟ ΣΧΟΛΕΙΟ ΛΑΣΤΑΙΙΚΩΝ ΠΥΡΓΟΥ,21.409059,37.693607
817,ΔΗΜΟΤΙΚΟ ΣΧΟΛΕΙΟ ΚΛΕΙΤΟΡΙΑΣ ΚΑΛΑΒΡΥΤΩΝ,22.124863,37.893873
818,3ο ΔΗΜΟΤΙΚΟ ΣΧΟΛΕΙΟ ΠΑΡΑΛΙΑΣ,,
819,ΔΗΜΟΤΙΚΟ ΣΧΟΛΕΙΟ ΧΡΥΣΟΠΗΓΗΣ,,
820,ΔΗΜΟΤΙΚΟ ΣΧΟΛΕΙΟ ΧΡΥΣΟΒΕΡΓΙΟΥ ΜΕΣΟΛΟΓΓΙΟΥ,21.352139,38.496607
821,ΔΗΜΟΤΙΚΟ ΣΧΟΛΕΙΟ ΚΟΥΝΙΝΑΣ ΑΙΓΙΑΛΕΙΑΣ,22.022852,38.192674
822,6ο ΔΗΜΟΤΙΚΟ ΣΧΟΛΕΙΟ ΑΓΡΙΝΙΟΥ,21.402611,38.62237
823,7ο ΔΗΜΟΤΙΚΟ ΣΧΟΛΕΙΟ ΑΓΡΙΝΙΟΥ,,
824,1ο ΔΗΜΟΤΙΚΟ ΣΧΟΛΕΙΟ ΑΓΙΟΥ ΚΩΝΣΤΑΝΤΙΝΟΥ,21.399372,38.633882
825,ΔΗΜΟΤΙΚΟ ΣΧΟΛΕΙΟ ΓΙΑΝΝΟΥΖΙΟΥ ΑΓΡΙΝΙΟΥ,,
826,ΔΗΜΟΤΙΚΟ ΣΧΟΛΕΙΟ ΑΓΙΟΥ ΓΕΩΡΓΙΟΥ ΜΕΣΟΛΟΓΓΙΟΥ,21.541545,38.394311
827,ΔΗΜΟΤΙΚΟ ΣΧΟΛΕΙΟ ΛΟΥΤΡΟΥ ΑΜΦΙΛΟΧ,,
828,ΔΗΜΟΤΙΚΟ ΣΧΟΛΕΙΟ ΚΕΧΡΙΝΙΑΣ ΑΜΦΙΛΟΧ,,
829,ΔΗΜΟΤΙΚΟ ΣΧΟΛΕΙΟ ΒΑΛΜΑΝΤΟΥΡΑΣ ΠΑΤΡΑΣ,,
830,8ο ΔΗΜΟΤΙΚΟ ΣΧΟΛΕΙΟ ΑΓΡΙΝΙΟΥ,21.402238,38.629075
831,2ο ΔΗΜΟΤΙΚΟ ΣΧΟΛΕΙΟ ΑΓΙΟΥ ΚΩΝΣΤΑΝΤΙΝΟΥ,21.39936,38.633834
832,ΔΗΜΟΤΙΚΟ ΣΧΟΛΕΙΟ ΚΑΛΛΙΘΕΑΣ,,
833,1ο ΔΗΜΟΤΙΚΟ ΣΧΟΛΕΙΟ ΘΕΣΤΙΕΩΝ,,
834,ΔΗΜΟΤΙΚΟ ΣΧΟΛΕΙΟ ΔΙΑΜΑΝΤΑΙΙΚΩΝ ΤΡΙΧΩΝΙΔΑΣ,,
835,13ο ΔΗΜΟΤΙΚΟ ΣΧΟΛΕΙΟ ΑΓΡΙΝΙΟΥ,,
836,12ο ΔΗΜΟΤΙΚΟ ΣΧΟΛΕΙΟ ΑΓΡΙΝΙΟΥ,21.400516,38.627986
837,ΔΗΜΟΤΙΚΟ ΣΧΟΛΕΙΟ ΚΡΥΟΥ ΝΕΡΟΥ,21.568516,38.664806
838,1ο ΔΗΜΟΤΙΚΟ ΣΧΟΛΕΙΟ ΑΓΡΙΝΙΟΥ,21.401992,38.620493
839,ΔΗΜΟΤΙΚΟ ΣΧΟΛΕΙΟ ΝΕΑΣ ΑΒΟΡΑΝΗΣ,21.446863,38.607408
840,2ο ΔΗΜΟΤΙΚΟ ΣΧΟΛΕΙΟ ΑΓΡΙΝΙΟΥ,21.411658,38.626014
841,ΔΗΜΟΤΙΚΟ ΣΧΟΛΕΙΟ ΜΑΧΑΙΡΑ,21.151521,38.630374
842,ΔΗΜΟΤΙΚΟ ΣΧΟΛΕΙΟ ΒΑΡΕΤΑΔΑΣ ΑΜΦΙΛΟΧΙΑΣ,21.289285,38.867392
843,ΔΗΜΟΤΙΚΟ ΣΧΟΛΕΙΟ ΚΛΙΝΔΙΑΣ ΠΥΡΓΟΥ,21.682405,37.781711
844,2ο ΔΗΜΟΤΙΚΟ ΣΧΟΛΕΙΟ ΚΑΤΟΧΗΣ ΞΗΡΟΜΕΡΟΥ,21.256422,38.410412
845,ΔΗΜΟΤΙΚΟ ΣΧΟΛΕΙΟ ΑΓΙΑΣ ΜΑΥΡΑΣ,,
846,5ο ΔΗΜΟΤΙΚΟ ΣΧΟΛΕΙΟ ΜΕΣΟΛΟΓΓΙΟΥ,,
847,ΔΗΜΟΤΙΚΟ ΣΧΟΛΕΙΟ ΓΟΥΡΙΑΣ ΜΕΣΟΛΟΓΓΙΟΥ,21.262821,38.470834
848,ΔΗΜΟΤΙΚΟ ΣΧΟΛΕΙΟ ΣΕΛΙΝΟΥΝΤΟΣ ΑΙΓΙΑΛΕΙΑΣ,22.096642,38.220039
849,ΔΗΜΟΤΙΚΟ ΣΧΟΛΕΙΟ ΑΡΕΤΗΣ ΛΕΧΑΙΝΩΝ,21.30361,37.974659
850,1ο ΔΗΜΟΤΙΚΟ ΣΧΟΛΕΙΟ ΚΑΤΟΧΗΣ ΞΗΡΟΜΕΡΟΥ,21.256481,38.410392
851,ΔΗΜΟΤΙΚΟ ΣΧΟΛΕΙΟ ΜΕΓΑΝΙΤΗ,,
852,ΔΗΜΟΤΙΚΟ ΣΧΟΛΕΙΟ ΜΠΑΜΠΙΝΗΣ ΞΗΡΟΜΕΡΟΥ,21.148256,38.655395
853,2ο ΔΗΜΟΤΙΚΟ ΣΧΟΛΕΙΟ ΑΙΤΩΛΙΚΟΥ,21.269798,38.485564
854,1ο ΔΗΜΟΤΙΚΟ ΣΧΟΛΕΙΟ ΝΑΥΠΑΚΤΟΥ,,
855,1ο ΔΗΜΟΤΙΚΟ ΣΧΟΛΕΙΟ ΝΕΟΧΩΡΙΟΥ ΜΕΣΟΛΟΓΓΙΟΥ,21.276096,38.406673
856,ΔΗΜΟΤΙΚΟ ΣΧΟΛΕΙΟ ΜΑΣΤΡΟΥ ΜΕΣΟΛΟΓΓΙΟΥ,21.277576,38.435017
857,ΔΗΜΟΤΙΚΟ ΣΧΟΛΕΙΟ ΠΛΟΥΤΟΧΩΡΙΟΥ ΟΛΥΜΠΙΑΣ,,
858,1ο ΔΗΜΟΤΙΚΟ ΣΧΟΛΕΙΟ ΑΙΤΩΛΙΚΟΥ,,
859,ΔΗΜΟΤΙΚΟ ΣΧΟΛΕΙΟ ΚΑΛΛΙΘΕΑΣ ΠΑΤΡΑΣ,,
860,ΔΗΜΟΤΙΚΟ ΣΧΟΛΕΙΟ ΑΣΤΑΚΟΥ,21.082605,38.534378
861,ΔΗΜΟΤΙΚΟ ΣΧΟΛΕΙΟ ΒΑΡΝΑΚΑ,20.989225,38.726845
862,3ο ΔΗΜΟΤΙΚΟ ΣΧΟΛΕΙΟ ΟΒΡΥΑΣ,,
863,ΔΗΜΟΤΙΚΟ ΣΧΟΛΕΙΟ ΚΑΤΩ ΠΤΕΡΗΣ ΑΙΓΙΑΛΕΙΑΣ,22.074739,38.146203
864,ΔΗΜΟΤΙΚΟ ΣΧΟΛΕΙΟ ΠΛΑΤΑΝΙΩΤΙΣΣΗΣ ΚΑΛΑΒΡΥΤΩΝ,22.089673,38.107117
865,7ο ΔΗΜΟΤΙΚΟ ΣΧΟΛΕΙΟ ΜΕΣΟΛΟΓΓΙΟΥ,,
866,ΔΗΜΟΤΙΚΟ ΣΧΟΛΕΙΟ ΒΟΛΙΜΩΝ,20.659063,37.874006
867,ΔΗΜΟΤΙΚΟ ΣΧΟΛΕΙΟ ΜΟΝΑΣΤΗΡΑΚΙΟΥ,20.944814,38.849615
868,ΔΗΜΟΤΙΚΟ ΣΧΟΛΕΙΟ ΠΑΛΑΙΟΜΑΝΙΝΑΣ,21.241748,38.548044
869,ΔΗΜΟΤΙΚΟ ΣΧΟΛΕΙΟ ΠΕΝΤΑΛΟΦΟΥ ΞΗΡΟΜΕΡΟΥ,21.244951,38.483759
870,ΔΗΜΟΤΙΚΟ ΣΧΟΛΕΙΟ ΠΡΟΔΡΟΜΟΥ ΞΗΡΟΜΕΡΟΥ,21.180513,38.596736
871,ΔΗΜΟΤΙΚΟ ΣΧΟΛΕΙΟ ΣΤΡΟΓΓΥΛΟΒΟΥΝΙΟΥ ΞΗΡΟΜΕΡΟΥ,21.214289,38.52679
872,ΔΗΜΟΤΙΚΟ ΣΧΟΛΕΙΟ ΚΕΡΤΕΖΗΣ ΚΑΛΑΒΡΥΤΩΝ,21.994444,37.978625
873,20ο ΔΗΜΟΤΙΚΟ ΣΧΟΛΕΙΟ ΑΓΡΙΝΙΟΥ,21.415929,38.614467
874,2ο ΔΗΜΟΤΙΚΟ ΣΧΟΛΕΙΟ ΜΕΣΟΛΟΓΓΙΟΥ,21.431144,38.377627
875,1ο ΔΗΜΟΤΙΚΟ ΣΧΟΛΕΙΟ ΜΕΣΟΛΟΓΓΙΟΥ,,
876,ΔΗΜΟΤΙΚΟ ΣΧΟΛΕΙΟ ΑΚΤΑΙΟΥ ΠΑΤΡΑΣ,21.795577,38.302162
877,ΔΗΜΟΤΙΚΟ ΣΧΟΛΕΙΟ ΔΙΛΙΝΑΤΩΝ,20.517563,38.222755
878,ΔΗΜΟΤΙΚΟ ΣΧΟΛΕΙΟ ΕΛΕΠΑΠ ΑΓΡΙΝΙΟΥ ΕΙΔΙΚΟ,21.40824,38.621427
879,ΔΗΜΟΤΙΚΟ ΣΧΟΛΕΙΟ ΚΑΤΩ ΚΕΡΑΣΟΒΟΥ ΜΕΣΟΛΟΓΓΙΟΥ,21.430808,38.526879
880,ΔΗΜΟΤΙΚΟ ΣΧΟΛΕΙΟ ΑΓΙΟΥ ΘΩΜΑ ΜΕΣΟΛΟΓΓΙΟΥ,21.47627,38.383931
881,ΔΙΕΥΘΥΝΣΗ Δ.Ε. ΗΛΕΙΑΣ,21.444197,37.671197
882,ΔΙΕΥΘΥΝΣΗ Δ.Ε. ΑΧΑΪΑΣ,21.732646,38.244056
883,ΔΙΕΥΘΥΝΣΗ Δ.Ε. ΑΙΤΩΛΟΑΚΑΡΝΑΝΙΑΣ,21.430199,38.372484
884,1ο ΕΡΓΑΣΤΗΡΙΑΚΟ ΚΕΝΤΡΟ ΦΥΣΙΚΩΝ ΕΠΙΣΤΗΜΩΝ ΗΛΕΙΑΣ (ΠΥΡΓΟΣ),,
885,2ο ΕΡΓΑΣΤΗΡΙΑΚΟ ΚΕΝΤΡΟ ΦΥΣΙΚΩΝ ΕΠΙΣΤΗΜΩΝ ΑΧΑΙΑΣ (ΑΙΓΙΟ),22.076005,38.247374
886,2ο ΕΡΓΑΣΤΗΡΙΑΚΟ ΚΕΝΤΡΟ ΦΥΣΙΚΩΝ ΕΠΙΣΤΗΜΩΝ ΑΙΤΩΛΟΑΚΑΡΝΑΝΙΑΣ (ΜΕΣΟΛΟΓΓΙ),21.43175,38.379719
887,1ο ΕΡΓΑΣΤΗΡΙΑΚΟ ΚΕΝΤΡΟ ΦΥΣΙΚΩΝ ΕΠΙΣΤΗΜΩΝ ΑΧΑΙΑΣ (ΠΑΤΡΑ),21.753555,38.271914
888,1ο ΕΡΓΑΣΤΗΡΙΑΚΟ ΚΕΝΤΡΟ ΦΥΣΙΚΩΝ ΕΠΙΣΤΗΜΩΝ ΑΙΤΩΛΟΑΚΑΡΝΑΝΙΑΣ (ΑΓΡΙΝΙΟ),21.410892,38.60622
889,ΚΕΣΥΠ ΑΙΤ/ΝΙΑΣ - 2 (ΜΕΣΟΛΟΓΓΙ),21.430835,38.36955
890,ΚΕΣΥΠ ΑΧΑΪΑΣ - 2,22.083907,38.249561
891,ΚΕΣΥΠ ΑΧΑΪΑΣ - 1,21.733142,38.243934
892,ΚΕΣΥΠ ΗΛΙΕΙΑΣ,21.434193,37.668881
893,ΚΕΣΥΠ ΚΕΣΥΠ ΑΙΤ/ΝΙΑΣ - 1(ΑΓΡΙΝΙΟ),21.409707,38.621425
894,3ο ΓΡΑΦΕΙΟ Δ.Ε. ΑΧΑΪΑΣ,21.736229,38.246224
895,1ο ΓΡΑΦΕΙΟ Δ.Ε. ΑΙΤΩΛΟΑΚΑΡΝΑΝΙΑΣ,21.404995,38.622623
896,2ο ΓΡΑΦΕΙΟ Δ.Ε. ΗΛΕΙΑΣ,,
897,1ο ΓΡΑΦΕΙΟ Δ.Ε. ΗΛΕΙΑΣ,21.352959,37.790445
898,1ο ΓΡΑΦΕΙΟ Δ.Ε. ΑΧΑΪΑΣ,21.730518,38.240451
899,2ο ΓΡΑΦΕΙΟ Δ.Ε. ΑΧΑΪΑΣ,22.083775,38.247516
900,2ο ΓΡΑΦΕΙΟ Δ.Ε. ΑΙΤΩΛΟΑΚΑΡΝΑΝΙΑΣ,21.163085,38.860172
901,3ο ΓΡΑΦΕΙΟ Δ.Ε. ΑΙΤΩΛΟΑΚΑΡΝΑΝΙΑΣ,,
902,ΓΡΑΦΕΙΟ ΤΕΕ ΑΙΤΩΛΟΑΚΑΡΝΑΝΙΑΣ,21.438038,38.377059
903,ΓΡΑΦΕΙΟ ΤΕΕ ΑΧΑΪΑΣ,21.730479,38.240495
904,ΙΕΚ ΑΜΑΛΙΑΔΑΣ,,
905,ΙΕΚ ΚΑΛΑΒΡΥΤΩΝ (ΠΑΡΑΡΤ. ΠΑΤΡΑΣ),,
906,ΙΕΚ ΝΑΥΠΑΚΤΟΥ,,
907,ΙΕΚ ΠΥΡΓΟΥ,,
908,ΙΕΚ ΠΑΤΡΑΣ,,
909,ΙΕΚ ΤΡΙΤΑΙΑΣ (ΠΑΡΑΡΤ. ΠΑΤΡΑΣ),,
910,ΙΕΚ ΜΕΣΟΛΟΓΓΙΟΥ,,
911,ΙΕΚ ΑΓΡΙΝΙΟΥ,,
912,ΙΕΚ ΑΙΓΙΟΥ,,
913,2ο ΙΕΚ ΠΑΤΡΑΣ,,
914,ΙΕΚ ΚΑΤΩ ΑΧΑΙΑΣ (ΠΑΡΑΡΤ. ΠΑΤΡΑΣ),,
915,ΔΙΕΥΘΥΝΣΗ Π.Ε. ΑΧΑΪΑΣ,,
916,ΔΙΕΥΘΥΝΣΗ Π.Ε. ΑΙΤΩΛΟΑΚΑΡΝΑΝΙΑΣ,,
917,ΔΙΕΥΘΥΝΣΗ Π.Ε. ΗΛΕΙΑΣ,,
918,6ο ΓΡΑΦΕΙΟ Π.Ε. ΑΙΤΩΛΟΑΚΑΡΝΑΝΙΑΣ,,
919,3ο ΓΡΑΦΕΙΟ Π.Ε. ΗΛΕΙΑΣ,,
920,5ο ΓΡΑΦΕΙΟ Π.Ε. ΑΙΤΩΛΟΑΚΑΡΝΑΝΙΑΣ,,
921,4ο ΓΡΑΦΕΙΟ Π.Ε. ΗΛΕΙΑΣ,,
922,4ο ΓΡΑΦΕΙΟ Π.Ε. ΑΧΑΪΑΣ,,
923,2ο ΓΡΑΦΕΙΟ Π.Ε. ΑΧΑΪΑΣ,,
924,1ο ΓΡΑΦΕΙΟ Π.Ε. ΑΧΑΪΑΣ,,
925,1ο ΓΡΑΦΕΙΟ Π.Ε. ΗΛΕΙΑΣ,,
926,4ο ΓΡΑΦΕΙΟ Π.Ε. ΑΙΤΩΛΟΑΚΑΡΝΑΝΙΑΣ,,
927,2ο ΓΡΑΦΕΙΟ Π.Ε. ΑΙΤΩΛΟΑΚΑΡΝΑΝΙΑΣ,,
928,3ο ΓΡΑΦΕΙΟ Π.Ε. ΑΙΤΩΛΟΑΚΑΡΝΑΝΙΑΣ,,
929,2ο ΓΡΑΦΕΙΟ Π.Ε. ΗΛΕΙΑΣ,,
930,7ο ΓΡΑΦΕΙΟ Π.Ε. ΑΙΤΩΛΟΑΚΑΡΝΑΝΙΑΣ,,
931,1ο ΓΡΑΦΕΙΟ Π.Ε. ΑΙΤΩΛΟΑΚΑΡΝΑΝΙΑΣ,,
932,3ο ΓΡΑΦΕΙΟ Π.Ε. ΑΧΑΪΑΣ,,
933,5ο ΓΡΑΦΕΙΟ Π.Ε. ΑΧΑΪΑΣ,,
934,ΠΕΡΙΦΕΡΕΙΑΚΟ ΕΠΙΜΟΡΦΩΤΙΚΟ ΚΕΝΤΡΟ ΠΑΤΡΑΣ,,
935,ΝΗΠΙΑΓΩΓΕΙΟ ΓΕΡΑΚΙΟΥ,21.394384,37.793195
936,ΝΗΠΙΑΓΩΓΕΙΟ ΑΜΠΕΛΩΝΟΣ,21.466179,37.727164
937,44ο ΝΗΠΙΑΓΩΓΕΙΟ ΠΑΤΡΑΣ,21.727241,38.23527
938,ΝΗΠΙΑΓΩΓΕΙΟ ΑΝΔΡΩΝΙΟΥ,21.719084,37.802141
939,6ο ΝΗΠΙΑΓΩΓΕΙΟ ΑΜΑΛΙΑΔΑΣ,,
940,3ο ΝΗΠΙΑΓΩΓΕΙΟ ΑΙΤΩΛΙΚΟΥ,,
941,ΝΗΠΙΑΓΩΓΕΙΟ ΚΑΤΩ ΣΑΜΙΚΟΥ,21.601682,37.539165
942,ΝΗΠΙΑΓΩΓΕΙΟ ΦΑΣΚΟΜΗΛΙΑΣ,,
943,ΝΗΠΙΑΓΩΓΕΙΟ ΣΑΜΙΚΟΥ,21.588333,37.572717
944,ΝΗΠΙΑΓΩΓΕΙΟ ΚΑΓΚΑΔΙΟΥ,21.451217,38.040394
945,ΝΗΠΙΑΓΩΓΕΙΟ ΝΕΑΣ ΜΑΝΟΛΑΔΑΣ ΛΕΧΑΙΝΩΝ,21.38484,38.052399
946,ΝΗΠΙΑΓΩΓΕΙΟ ΚΕΝΤΡΟΥ,21.447866,37.8971
947,ΝΗΠΙΑΓΩΓΕΙΟ ΣΙΜΟΠΟΥΛΟΥ,21.571015,37.849372
948,ΝΗΠΙΑΓΩΓΕΙΟ ΜΑΚΡΙΣΙΩΝ ΟΛΥΜΠΙΑΣ,21.605785,37.608275
949,ΝΗΠΙΑΓΩΓΕΙΟ ΛΕΠΡΕΟΥ,21.723042,37.435729
950,ΝΗΠΙΑΓΩΓΕΙΟ ΚΑΛΛΙΘΕΑΣ,21.823893,37.550865
951,ΝΗΠΙΑΓΩΓΕΙΟ ΚΕΡΑΜΙΔΙΑΣ,21.455086,37.853202
952,8ο ΝΗΠΙΑΓΩΓΕΙΟ ΝΑΥΠΑΚΤΟΥ,,
953,ΝΗΠΙΑΓΩΓΕΙΟ ΑΓΙΟΥ ΙΩΑΝΝΗ,,
954,ΝΗΠΙΑΓΩΓΕΙΟ ΜΙΡΑΚΑΣ,21.65498,37.643603
955,ΝΗΠΙΑΓΩΓΕΙΟ ΠΑΛΑΙΟΒΑΡΒΑΣΑΙΝΗΣ,21.52446,37.677476
956,3ο ΝΗΠΙΑΓΩΓΕΙΟ ΠΥΡΓΟΥ,,
957,ΝΗΠΙΑΓΩΓΕΙΟ ΚΑΛΥΒΙΩΝ ΗΛΙΔΑΣ,21.366207,37.885257
958,1ο ΝΗΠΙΑΓΩΓΕΙΟ ΒΑΡΔΑΣ ΛΕΧΑΙΝΩΝ,21.364021,38.032065
959,ΝΗΠΙΑΓΩΓΕΙΟ ΞΗΡΟΧΩΡΙΟΥ,21.655156,37.50784
960,ΝΗΠΙΑΓΩΓΕΙΟ ΚΟΥΜΑΝΗ ΠΥΡΓΟΥ,21.759351,37.789292
961,9ο ΝΗΠΙΑΓΩΓΕΙΟ ΠΥΡΓΟΥ,,
962,ΝΗΠΙΑΓΩΓΕΙΟ ΣΕΡΜΠΑΝΙΟΥ,,
963,8ο ΝΗΠΙΑΓΩΓΕΙΟ ΠΥΡΓΟΥ,,
964,ΝΗΠΙΑΓΩΓΕΙΟ ΑΛΦΕΙΟΥΣΗΣ,21.541165,37.639642
965,ΝΗΠΙΑΓΩΓΕΙΟ ΠΕΡΣΑΙΝΗΣ,21.676046,37.751436
966,ΝΗΠΙΑΓΩΓΕΙΟ ΛΑΤΤΑΣ,21.548242,37.876375
967,ΝΗΠΙΑΓΩΓΕΙΟ ΧΑΝΙΩΝ ΓΑΥΡΟΛΙΜΝΗΣ,21.62678,38.382808
968,ΝΗΠΙΑΓΩΓΕΙΟ ΚΡΗΝΗΣ,,
969,1ο ΝΗΠΙΑΓΩΓΕΙΟ ΑΜΑΛΙΑΔΑΣ,21.355003,37.79445
970,ΝΗΠΙΑΓΩΓΕΙΟ ΚΑΤΣΑΡΟΥ,21.419391,37.720752
971,2ο ΝΗΠΙΑΓΩΓΕΙΟ ΑΜΑΛΙΑΔΑΣ,21.344206,37.796603
972,ΝΗΠΙΑΓΩΓΕΙΟ ΜΥΡΤΕΑΣ,21.351164,37.712007
973,ΝΗΠΙΑΓΩΓΕΙΟ ΚΟΥΤΣΟΧΕΡΑΣ,21.530998,37.790753
974,12ο ΝΗΠΙΑΓΩΓΕΙΟ ΑΓΡΙΝΙΟΥ,,
975,ΝΗΠΙΑΓΩΓΕΙΟ ΓΙΑΝΝΟΥΖΙΟΥ,,
976,12ο ΝΗΠΙΑΓΩΓΕΙΟ ΠΥΡΓΟΥ,,
977,ΝΗΠΙΑΓΩΓΕΙΟ ΚΑΚΟΒΑΤΟΥ,21.644418,37.457708
978,ΝΗΠΙΑΓΩΓΕΙΟ ΚΑΒΑΣΙΛΩΝ,21.266279,37.875918
979,ΝΗΠΙΑΓΩΓΕΙΟ ΝΕΟΧΩΡΙΟΥ,21.204529,37.905347
980,ΝΗΠΙΑΓΩΓΕΙΟ ΜΑΝΟΛΑΔΑΣ,21.348746,38.046228
981,2ο ΝΗΠΙΑΓΩΓΕΙΟ ΒΑΡΔΑΣ,21.364191,38.031891
982,ΝΗΠΙΑΓΩΓΕΙΟ ΣΑΛΜΩΝΗΣ,21.534902,37.659155
983,ΝΗΠΙΑΓΩΓΕΙΟ ΑΜΠΕΛΟΚΑΜΠΟΥ,21.309893,37.830218
984,ΝΗΠΙΑΓΩΓΕΙΟ ΡΟΔΙΑΣ,21.586159,37.810582
985,ΝΗΠΙΑΓΩΓΕΙΟ ΟΙΝΟΗΣ,21.525836,37.837214
986,ΝΗΠΙΑΓΩΓΕΙΟ ΑΓΙΟΥ ΓΕΩΡΓΙΟΥ,21.436311,37.701706
987,1ο ΝΗΠΙΑΓΩΓΕΙΟ ΒΑΡΘΟΛΟΜΙΟΥ,21.207029,37.860249
988,ΝΗΠΙΑΓΩΓΕΙΟ ΒΟΥΝΑΡΓΟΥ,21.40981,37.735201
989,ΝΗΠΙΑΓΩΓΕΙΟ ΔΟΥΝΑΙΙΚΩΝ,21.332129,37.739967
990,ΝΗΠΙΑΓΩΓΕΙΟ ΠΕΛΟΠΙΟΥ ΠΥΡΓΟΥ,21.593607,37.676189
991,ΝΗΠΙΑΓΩΓΕΙΟ ΑΓΙΟΥ ΓΕΩΡΓΙΟΥ,,
992,ΝΗΠΙΑΓΩΓΕΙΟ ΛΑΝΘΙΟΥ,21.519403,37.703866
993,ΝΗΠΙΑΓΩΓΕΙΟ ΚΑΛΛΙΚΩΜΟΥ,21.586497,37.589882
994,4ο ΝΗΠΙΑΓΩΓΕΙΟ ΓΑΣΤΟΥΝΗΣ,21.245807,37.846959
995,ΝΗΠΙΑΓΩΓΕΙΟ ΕΦΥΡΑΣ,21.517732,37.855058
996,ΝΗΠΙΑΓΩΓΕΙΟ ΝΕΜΟΥΤΑΣ,21.793674,37.698839
997,2ο ΝΗΠΙΑΓΩΓΕΙΟ ΓΑΣΤΟΥΝΗΣ,21.245685,37.846785
998,ΝΗΠΙΑΓΩΓΕΙΟ ΧΕΛΙΔΟΝΙΟΥ,21.623084,37.71236
999,ΝΗΠΙΑΓΩΓΕΙΟ ΛΑΣΤΕΙΚΩΝ,21.409026,37.693851
1000,ΝΗΠΙΑΓΩΓΕΙΟ ΜΟΥΖΑΚΙΟΥ,21.561389,37.781798
1001,ΝΗΠΙΑΓΩΓΕΙΟ ΓΙΑΝΝΙΤΣΟΧΩΡΙΟΥ,21.68766,37.392035
1002,ΝΗΠΙΑΓΩΓΕΙΟ ΛΑΛΑ,21.720476,37.709731
1003,ΝΗΠΙΑΓΩΓΕΙΟ ΛΑΝΤΖΟΙΟΥ,21.562318,37.706679
1004,ΝΗΠΙΑΓΩΓΕΙΟ ΠΑΛΑΙΟΧΩΡΙΟΥ,21.266821,37.81706
1005,8ο ΝΗΠΙΑΓΩΓΕΙΟ ΑΜΑΛΙΑΔΑΣ,21.342897,37.790125
1006,7ο ΝΗΠΙΑΓΩΓΕΙΟ ΠΥΡΓΟΥ,,
1007,11ο ΝΗΠΙΑΓΩΓΕΙΟ ΠΥΡΓΟΥ,,
1008,ΝΗΠΙΑΓΩΓΕΙΟ ΑΓΙΑΣ ΦΙΛΟΘΕΗΣ,,
1009,ΝΗΠΙΑΓΩΓΕΙΟ ΜΠΟΡΣΙΟΥ,,
1010,3ο ΝΗΠΙΑΓΩΓΕΙΟ ΑΜΑΛΙΑΔΑΣ,21.343619,37.791354
1011,ΝΗΠΙΑΓΩΓΕΙΟ ΚΑΡΔΑΜΑ,21.33815,37.766484
1012,4ο ΝΗΠΙΑΓΩΓΕΙΟ ΠΥΡΓΟΥ,,
1013,ΝΗΠΙΑΓΩΓΕΙΟ ΒΑΡΒΑΣΑΙΝΗΣ,21.501867,37.669879
1014,ΝΗΠΙΑΓΩΓΕΙΟ ΠΡΑΣΙΝΟΥ,21.423444,37.714652
1015,10ο ΝΗΠΙΑΓΩΓΕΙΟ ΠΥΡΓΟΥ,,
1016,1ο ΝΗΠΙΑΓΩΓΕΙΟ ΓΑΣΤΟΥΝΗΣ,21.245685,37.846785
1017,5ο ΝΗΠΙΑΓΩΓΕΙΟ ΑΜΑΛΙΑΔΑΣ,21.343863,37.790708
1018,ΝΗΠΙΑΓΩΓΕΙΟ ΣΑΒΑΛΙΩΝ,21.287469,37.810254
1019,ΝΗΠΙΑΓΩΓΕΙΟ ΑΕΡ/ΚΗΣ ΒΑΣΗΣ ΑΝΔΡΑΒΙΔΑΣ,21.270063,37.905506
1020,ΝΗΠΙΑΓΩΓΕΙΟ ΚΑΡΑΤΟΥΛΑΣ,21.537075,37.73397
1021,ΝΗΠΙΑΓΩΓΕΙΟ ΓΟΥΜΕΡΟΥ ΠΥΡΓΟΥ,21.618066,37.760362
1022,ΝΗΠΙΑΓΩΓΕΙΟ ΜΑΤΑΡΑΓΚΑΣ,21.475263,38.021069
1023,2ο ΝΗΠΙΑΓΩΓΕΙΟ ΛΕΧΑΙΝΩΝ,21.261378,37.937408
1024,ΝΗΠΙΑΓΩΓΕΙΟ ΜΕΛΙΣΣΙΩΝ,22.063646,38.182764
1025,3ο ΝΗΠΙΑΓΩΓΕΙΟ ΚΑΤΩ ΑΧΑΪΑΣ,,
1026,ΝΗΠΙΑΓΩΓΕΙΟ ΝΙΦΟΡΕΪΚΩΝ,21.524444,38.143063
1027,ΝΗΠΙΑΓΩΓΕΙΟ ΣΤΡΑΤΟΥ,21.320301,38.67153
1028,5ο ΝΗΠΙΑΓΩΓΕΙΟ ΠΥΡΓΟΥ,,
1029,ΝΗΠΙΑΓΩΓΕΙΟ ΧΑΒΑΡΙΟΥ,21.383072,37.847564
1030,ΝΗΠΙΑΓΩΓΕΙΟ ΑΓΙΟΥ ΙΩΑΝΝΗ,,
1031,ΝΗΠΙΑΓΩΓΕΙΟ ΣΜΙΛΑ,21.554736,37.676957
1032,ΝΗΠΙΑΓΩΓΕΙΟ ΠΛΑΤΑΝΟΥ ΠΥΡΓΟΥ,21.610467,37.664963
1033,ΝΗΠΙΑΓΩΓΕΙΟ ΚΟΛΙΡΙΟΥ,21.476528,37.68625
1034,4ο ΝΗΠΙΑΓΩΓΕΙΟ ΑΜΑΛΙΑΔΑΣ,21.356724,37.797991
1035,ΝΗΠΙΑΓΩΓΕΙΟ ΚΑΨΟΡΑΧΗΣ,,
1036,ΝΗΠΙΑΓΩΓΕΙΟ ΜΑΝΕΣΙΟΥ,21.959464,38.018205
1037,52ο ΝΗΠΙΑΓΩΓΕΙΟ ΠΑΤΡΑΣ,21.734186,38.216079
1038,51ο ΝΗΠΙΑΓΩΓΕΙΟ ΠΑΤΡΑΣ,,
1039,ΝΗΠΙΑΓΩΓΕΙΟ ΒΕΛΑΝΙΔΙΟΥ,21.509518,37.887781
1040,ΝΗΠΙΑΓΩΓΕΙΟ ΑΡΧΑΙΑΣ ΟΛΥΜΠΙΑΣ,21.626166,37.643045
1041,6ο ΝΗΠΙΑΓΩΓΕΙΟ ΠΥΡΓΟΥ,,
1042,ΝΗΠΙΑΓΩΓΕΙΟ ΣΤΑΜΝΑΣ,21.282025,38.514762
1043,ΝΗΠΙΑΓΩΓΕΙΟ ΧΑΝΑΚΙΩΝ,21.390629,37.737791
1044,ΝΗΠΙΑΓΩΓΕΙΟ ΠΑΠΑΔΑΤΩΝ,21.453217,38.526514
1045,1ο ΝΗΠΙΑΓΩΓΕΙΟ ΒΟΝΙΤΣΑΣ,20.883439,38.916515
1046,1ο ΝΗΠΙΑΓΩΓΕΙΟ ΝΑΥΠΑΚΤΟΥ,,
1047,ΝΗΠΙΑΓΩΓΕΙΟ ΟΧΘΙΩΝ ΒΑΛΤΟΥ,21.276561,38.697079
1048,ΝΗΠΙΑΓΩΓΕΙΟ ΣΑΡΔΗΝΙΩΝ,21.203796,38.890279
1049,4ο ΝΗΠΙΑΓΩΓΕΙΟ ΜΕΣΟΛΟΓΓΙΟΥ,,
1050,ΝΗΠΙΑΓΩΓΕΙΟ ΦΥΤΕΙΩΝ,21.185007,38.693864
1051,ΝΗΠΙΑΓΩΓΕΙΟ ΑΓΙΑΣ ΣΟΦΙΑΣ,,
1052,1ο ΝΗΠΙΑΓΩΓΕΙΟ ΑΓΡΙΝΙΟΥ,21.400406,38.626021
1053,41ο ΝΗΠΙΑΓΩΓΕΙΟ ΠΑΤΡΑΣ,21.753899,38.266319
1054,ΝΗΠΙΑΓΩΓΕΙΟ ΠΑΠΑΔΑΤΟΥ,21.173268,38.707687
1055,2ο ΝΗΠΙΑΓΩΓΕΙΟ ΝΑΥΠΑΚΤΟΥ,,
1056,ΝΗΠΙΑΓΩΓΕΙΟ ΓΟΥΡΙΩΤΙΣΣΑΣ ΞΗΡΟΜΕΡΟΥ,21.224534,38.613458
1057,ΝΗΠΙΑΓΩΓΕΙΟ ΚΥΨΕΛΗΣ,21.268618,38.682006
1058,57ο ΝΗΠΙΑΓΩΓΕΙΟ ΠΑΤΡΑΣ,21.736291,38.220362
1059,ΝΗΠΙΑΓΩΓΕΙΟ ΜΙΧΟΙΟΥ,,
1060,ΝΗΠΙΑΓΩΓΕΙΟ ΜΙΝΤΙΛΟΓΛΙΟΥ,,
1061,1ο ΝΗΠΙΑΓΩΓΕΙΟ ΑΓΙΟΥ ΚΩΝΣΤΑΝΤΙΝΟΥ,,
1062,2ο ΝΗΠΙΑΓΩΓΕΙΟ ΑΜΦΙΛΟΧΙΑΣ,21.162018,38.860301
1063,1ο ΝΗΠΙΑΓΩΓΕΙΟ ΑΜΦΙΛΟΧΙΑΣ,21.162018,38.860301
1064,ΝΗΠΙΑΓΩΓΕΙΟ ΚΡΕΣΤΕΝΩΝ ΟΛΥΜΠΙΑΣ,21.621572,37.593073
1065,2ο ΝΗΠΙΑΓΩΓΕΙΟ ΑΓΙΟΥ ΚΩΝΣΤΑΝΤΙΝΟΥ,21.399373,38.633851
1066,6ο ΝΗΠΙΑΓΩΓΕΙΟ ΑΓΡΙΝΙΟΥ,21.391488,38.627303
1067,ΝΗΠΙΑΓΩΓΕΙΟ ΕΠΙΤΑΛΙΟΥ ΟΛΥΜΠΙΑΣ,21.49483,37.626212
1068,ΝΗΠΙΑΓΩΓΕΙΟ ΛΑΜΠΕΙΑΣ,21.804292,37.8566
1069,ΝΗΠΙΑΓΩΓΕΙΟ ΜΑΤΑΡΑΓΚΑΣ,21.471967,38.522789
1070,ΝΗΠΙΑΓΩΓΕΙΟ ΑΡΛΑΣ,,
1071,ΝΗΠΙΑΓΩΓΕΙΟ ΒΡΑΝΑ,,
1072,ΝΗΠΙΑΓΩΓΕΙΟ ΛΥΓΙΑΣ,21.853597,38.408379
1073,ΝΗΠΙΑΓΩΓΕΙΟ ΑΓΙΟΥ ΘΩΜΑ,21.476272,38.384173
1074,10ο ΝΗΠΙΑΓΩΓΕΙΟ ΑΓΡΙΝΙΟΥ,21.415135,38.621245
1075,ΝΗΠΙΑΓΩΓΕΙΟ ΑΓΙΟΥ ΔΗΜΗΤΡΙΟΥ,21.40892,37.897056
1076,ΝΗΠΙΑΓΩΓΕΙΟ ΛΕΠΕΝΟΥΣ,21.291325,38.708691
1077,ΝΗΠΙΑΓΩΓΕΙΟ ΜΕΝΙΔΙΟΥ,21.119914,39.041097
1078,4ο ΝΗΠΙΑΓΩΓΕΙΟ ΝΑΥΠΑΚΤΟΥ,,
1079,ΝΗΠΙΑΓΩΓΕΙΟ ΓΡΑΜΜΑΤΙΚΟΥΣ,,
1080,ΝΗΠΙΑΓΩΓΕΙΟ ΠΑΝΟΠΟΥΛΟΥ,21.692441,37.818393
1081,2ο ΝΗΠΙΑΓΩΓΕΙΟ ΖΑΧΑΡΩΣ,21.650559,37.484986
1082,ΝΗΠΙΑΓΩΓΕΙΟ ΚΑΤΩ ΠΑΝΑΓΙΟΥ ,21.14695,37.927498
1083,ΝΗΠΙΑΓΩΓΕΙΟ ΨΑΡΙΟΥ,,
1084,ΝΗΠΙΑΓΩΓΕΙΟ ΚΑΤΑΚΟΛΟΥ,21.311536,37.63925
1085,7ο ΝΗΠΙΑΓΩΓΕΙΟ ΑΓΡΙΝΙΟΥ,,
1086,ΝΗΠΙΑΓΩΓΕΙΟ ΑΝΑΛΗΨΗΣ,21.701528,38.492642
1087,ΝΗΠΙΑΓΩΓΕΙΟ ΞΗΡΟΠΗΓΑΔΟΥ,21.862101,38.401128
1088,ΝΗΠΙΑΓΩΓΕΙΟ ΠΕΡΙΣΤΕΡΙΟΥ,21.473232,37.805145
1089,ΝΗΠΙΑΓΩΓΕΙΟ ΑΝΩ ΚΕΡΑΣΟΒΟΥ,21.445248,38.487764
1090,ΝΗΠΙΑΓΩΓΕΙΟ ΡΟΥΠΑΚΙΟΥ,21.325141,37.863874
1091,ΝΗΠΙΑΓΩΓΕΙΟ ΚΟΥΡΤΕΣΙΟΥ,21.328964,37.965471
1092,ΝΗΠΙΑΓΩΓΕΙΟ ΓΟΥΡΙΑΣ,21.262809,38.471152
1093,ΝΗΠΙΑΓΩΓΕΙΟ ΒΑΡΝΑΚΑ,20.98923,38.726734
1094,ΝΗΠΙΑΓΩΓΕΙΟ ΛΟΥΤΡΟΥ,,
1095,ΝΗΠΙΑΓΩΓΕΙΟ ΤΡΑΓΑΝΟΥ ΛΕΧΑΙΝΩΝ,,
1096,ΝΗΠΙΑΓΩΓΕΙΟ ΛΥΓΙΑΣ,21.156354,37.858042
1097,2ο ΝΗΠΙΑΓΩΓΕΙΟ ΝΕΟΧΩΡΙΟΥ ΜΕΣΟΛΟΓΓΙΟΥ,21.276196,38.406649
1098,ΝΗΠΙΑΓΩΓΕΙΟ ΠΕΝΤΑΛΟΦΟΥ,21.244743,38.483913
1099,ΝΗΠΙΑΓΩΓΕΙΟ ΔΟΚΙΜΙΟΥ,21.381815,38.614629
1100,ΝΗΠΙΑΓΩΓΕΙΟ ΑΜΟΡΓΙΑΝΩΝ ΒΑΛΤΟΥ,21.361336,38.865202
1101,ΝΗΠΙΑΓΩΓΕΙΟ ΜΥΤΙΚΑ,20.945392,38.667765
1102,1ο ΝΗΠΙΑΓΩΓΕΙΟ ΝΕΑΠΟΛΗΣ,,
1103,ΝΗΠΙΑΓΩΓΕΙΟ ΕΛΑΙΩΝΟΣ,21.465454,37.744067
1104,2ο ΝΗΠΙΑΓΩΓΕΙΟ ΒΑΡΘΟΛΟΜΙΟΥ,21.206933,37.860321
1105,3ο ΝΗΠΙΑΓΩΓΕΙΟ ΜΕΣΟΛΟΓΓΙΟΥ,21.434995,38.374787
1106,42ο ΝΗΠΙΑΓΩΓΕΙΟ ΠΑΤΡΑΣ,21.736345,38.220363
1107,1ο ΝΗΠΙΑΓΩΓΕΙΟ ΚΑΤΟΥΝΑΣ,,
1108,ΝΗΠΙΑΓΩΓΕΙΟ ΧΕΙΜΑΔΙΟΥ,21.508308,37.759941
1109,ΝΗΠΙΑΓΩΓΕΙΟ ΘΥΡΙΟΥ,20.983996,38.857455
1110,ΝΗΠΙΑΓΩΓΕΙΟ ΑΝΔΡΙΤΣΑΙΝΗΣ ΟΛΥΜΠΙΑΣ,21.906317,37.4835
1111,ΝΗΠΙΑΓΩΓΕΙΟ ΣΕΛΙΝΟΥΝΤΑ,22.09663,38.220046
1112,1ο ΝΗΠΙΑΓΩΓΕΙΟ ΚΑΤΩ ΑΧΑΪΑΣ,21.541889,38.142346
1113,ΝΗΠΙΑΓΩΓΕΙΟ ΠΑΤΡΑΣ ΕΙΔΙΚΟ,21.737492,38.221928
1114,5ο ΝΗΠΙΑΓΩΓΕΙΟ ΠΑΤΡΑΣ,21.73801,38.240516
1115,3ο ΝΗΠΙΑΓΩΓΕΙΟ ΠΑΤΡΑΣ,21.727145,38.235243
1116,2ο ΝΗΠΙΑΓΩΓΕΙΟ ΒΡΑΧΝΕΪΚΩΝ,21.669267,38.161682
1117,40ο ΝΗΠΙΑΓΩΓΕΙΟ ΠΑΤΡΑΣ,21.759118,38.230661
1118,ΝΗΠΙΑΓΩΓΕΙΟ ΡΙΒΙΟΥ,,
1119,39ο ΝΗΠΙΑΓΩΓΕΙΟ ΠΑΤΡΑΣ,21.75018,38.259478
1120,1ο ΝΗΠΙΑΓΩΓΕΙΟ ΡΙΟΥ,21.782135,38.300191
1121,ΝΗΠΙΑΓΩΓΕΙΟ ΧΡΥΣΟΒΙΤΣΑΣ,21.147519,38.585862
1122,3ο ΝΗΠΙΑΓΩΓΕΙΟ ΝΕΟΧΩΡΙΟΥ,21.276145,38.406705
1123,2ο ΝΗΠΙΑΓΩΓΕΙΟ ΚΑΤΟΧΗΣ,21.256425,38.410318
1124,ΝΗΠΙΑΓΩΓΕΙΟ ΚΑΤΩ ΜΑΖΑΡΑΚΙΟΥ,21.654029,38.068674
1125,2ο ΝΗΠΙΑΓΩΓΕΙΟ ΘΕΣΤΙΕΩΝ,,
1126,18ο ΝΗΠΙΑΓΩΓΕΙΟ ΑΓΡΙΝΙΟΥ,21.40456,38.628071
1127,19ο ΝΗΠΙΑΓΩΓΕΙΟ ΑΓΡΙΝΙΟΥ,,
1128,ΝΗΠΙΑΓΩΓΕΙΟ ΜΑΣΤΡΟΥ,21.27749,38.434988
1129,ΝΗΠΙΑΓΩΓΕΙΟ ΤΡΙΚΟΡΦΟΥ,21.641706,38.408913
1130,7ο ΝΗΠΙΑΓΩΓΕΙΟ ΜΕΣΟΛΟΓΓΙΟΥ,,
1131,ΝΗΠΙΑΓΩΓΕΙΟ ΚΕΚΡΟΠΙΑΣ,,
1132,1ο ΝΗΠΙΑΓΩΓΕΙΟ ΘΕΣΤΙΕΩΝ,,
1133,14ο ΝΗΠΙΑΓΩΓΕΙΟ ΠΑΤΡΑΣ,21.725497,38.217842
1134,21ο ΝΗΠΙΑΓΩΓΕΙΟ ΠΑΤΡΑΣ,21.738911,38.221742
1135,2ο ΝΗΠΙΑΓΩΓΕΙΟ ΨΩΦΙΔΑΣ ,,
1136,ΝΗΠΙΑΓΩΓΕΙΟ ΑΦΡΟΞΥΛΙΑΣ,,
1137,ΝΗΠΙΑΓΩΓΕΙΟ ΒΡΟΥΒΙΑΝΩΝ,21.412308,39.106668
1138,36ο ΝΗΠΙΑΓΩΓΕΙΟ ΠΑΤΡΑΣ,21.741681,38.256574
1139,35ο ΝΗΠΙΑΓΩΓΕΙΟ ΠΑΤΡΑΣ,21.744605,38.248781
1140,8ο ΝΗΠΙΑΓΩΓΕΙΟ ΠΑΤΡΑΣ,21.737341,38.25823
1141,2ο ΝΗΠΙΑΓΩΓΕΙΟ ΠΑΡΑΛΙΑΣ,,
1142,8ο ΝΗΠΙΑΓΩΓΕΙΟ ΑΙΓΙΟΥ,,
1143,ΝΗΠΙΑΓΩΓΕΙΟ ΚΑΜΑΡΩΝ,22.002629,38.298675
1144,ΝΗΠΙΑΓΩΓΕΙΟ ΑΡΑΧΩΒΙΤΙΚΩΝ,21.845755,38.329529
1145,1ο ΝΗΠΙΑΓΩΓΕΙΟ ΧΡΥΣΟΒΕΡΓΙΟΥ,,
1146,20ο ΝΗΠΙΑΓΩΓΕΙΟ ΑΓΡΙΝΙΟΥ,21.414969,38.615033
1147,21ο ΝΗΠΙΑΓΩΓΕΙΟ ΑΓΡΙΝΙΟΥ,21.412999,38.624179
1148,3ο ΝΗΠΙΑΓΩΓΕΙΟ ΠΑΝΑΙΤΩΛΙΟΥ,21.445991,38.579355
1149,ΝΗΠΙΑΓΩΓΕΙΟ ΑΓΙΟΥ ΓΕΩΡΓΙΟΥ,21.541532,38.394088
1150,ΝΗΠΙΑΓΩΓΕΙΟ ΚΑΤΩ ΚΛΕΙΣΟΡΡΕΥΜΑΤΩΝ,21.378482,38.541156
1151,22ο ΝΗΠΙΑΓΩΓΕΙΟ ΑΓΡΙΝΙΟΥ,,
1152,ΝΗΠΙΑΓΩΓΕΙΟ ΜΑΚΥΝΕΙΑΣ,,
1153,7ο ΝΗΠΙΑΓΩΓΕΙΟ ΠΑΤΡΑΣ,21.733345,38.236603
1154,11ο ΝΗΠΙΑΓΩΓΕΙΟ ΠΑΤΡΑΣ,,
1155,ΝΗΠΙΑΓΩΓΕΙΟ ΚΟΥΛΟΥΡΑΣ,22.086496,38.236036
1156,1ο ΝΗΠΙΑΓΩΓΕΙΟ ΖΑΧΑΡΩΣ ΟΛΥΜΠΙΑΣ,21.650501,37.485154
1157,ΝΗΠΙΑΓΩΓΕΙΟ ΚΑΤΩ ΚΑΣΤΡΙΤΣΙΟΥ,,
1158,1ο ΝΗΠΙΑΓΩΓΕΙΟ ΠΥΡΓΟΥ,,
1159,ΝΗΠΙΑΓΩΓΕΙΟ ΝΕΑΣ ΦΥΓΑΛΕΙΑΣ ΟΛΥΜΠΙΑΣ,21.772836,37.439137
1160,ΝΗΠΙΑΓΩΓΕΙΟ ΚΑΝΔΗΛΑΣ,20.940382,38.703149
1161,1ο ΝΗΠΙΑΓΩΓΕΙΟ ΚΑΤΟΧΗΣ ΞΗΡΟΜΕΡΟΥ,21.256531,38.410252
1162,ΝΗΠΙΑΓΩΓΕΙΟ ΤΥΦΛΩΝ ΑΧΑΪΑΣ ΕΙΔΙΚΟ,,
1163,69ο ΝΗΠΙΑΓΩΓΕΙΟ ΠΑΤΡΑΣ,21.750547,38.231356
1164,ΝΗΠΙΑΓΩΓΕΙΟ ΚΥΛΛΗΝΗΣ,21.144014,37.932097
1165,1ο ΝΗΠΙΑΓΩΓΕΙΟ ΟΒΡΥΑΣ,,
1166,38ο ΝΗΠΙΑΓΩΓΕΙΟ ΠΑΤΡΑΣ,21.769422,38.278549
1167,34ο ΝΗΠΙΑΓΩΓΕΙΟ ΠΑΤΡΑΣ,21.74155,38.269574
1168,29ο ΝΗΠΙΑΓΩΓΕΙΟ ΠΑΤΡΑΣ,21.732674,38.236191
1169,9ο ΝΗΠΙΑΓΩΓΕΙΟ ΠΑΤΡΑΣ,21.730105,38.218357
1170,ΝΗΠΙΑΓΩΓΕΙΟ ΚΑΛΛΙΘΕΑΣ,,
1171,58ο ΝΗΠΙΑΓΩΓΕΙΟ ΠΑΤΡΑΣ,21.727311,38.213634
1172,53ο ΝΗΠΙΑΓΩΓΕΙΟ ΠΑΤΡΑΣ,,
1173,12ο ΝΗΠΙΑΓΩΓΕΙΟ ΝΑΥΠΑΚΤΟΥ,,
1174,4ο ΝΗΠΙΑΓΩΓΕΙΟ ΠΑΤΡΑΣ,21.715476,38.213542
1175,ΝΗΠΙΑΓΩΓΕΙΟ ΕΛΑΙΩΝΑ,22.16996,38.196798
1176,ΝΗΠΙΑΓΩΓΕΙΟ ΑΙΓΕΙΡΑΣ,22.35083,38.146716
1177,3ο ΝΗΠΙΑΓΩΓΕΙΟ ΝΑΥΠΑΚΤΟΥ,,
1178,ΝΗΠΙΑΓΩΓΕΙΟ ΛΑΚΚΟΠΕΤΡΑΣ,21.453472,38.166755
1179,ΝΗΠΙΑΓΩΓΕΙΟ ΣΑΓΕΙΚΩΝ,,
1180,6ο ΝΗΠΙΑΓΩΓΕΙΟ ΠΑΤΡΑΣ,21.735138,38.248466
1181,ΝΗΠΙΑΓΩΓΕΙΟ ΛΑΠΠΑ,,
1182,ΝΗΠΙΑΓΩΓΕΙΟ ΒΡΑΧΝΕΪΚΩΝ,21.669267,38.161682
1183,ΝΗΠΙΑΓΩΓΕΙΟ ΛΙΜΝΟΧΩΡΙΟΥ,,
1184,ΝΗΠΙΑΓΩΓΕΙΟ ΛΕΥΚΟΧΩΡΙΟΥ,21.27328,37.872466
1185,ΝΗΠΙΑΓΩΓΕΙΟ ΣΤΡΟΥΣΙΟΥ,,
1186,18ο ΝΗΠΙΑΓΩΓΕΙΟ ΠΑΤΡΑΣ,21.741766,38.256716
1187,ΝΗΠΙΑΓΩΓΕΙΟ ΛΟΥΣΙΚΩΝ,21.594019,38.107735
1188,72ο ΝΗΠΙΑΓΩΓΕΙΟ ΠΑΤΡΩΝ,,
1189,27ο ΝΗΠΙΑΓΩΓΕΙΟ ΠΑΤΡΑΣ,21.749435,38.22936
1190,ΝΗΠΙΑΓΩΓΕΙΟ ΧΑΛΑΝΔΡΙΤΣΗΣ,,
1191,4ο ΝΗΠΙΑΓΩΓΕΙΟ ΑΙΓΙΟΥ,,
1192,5ο ΝΗΠΙΑΓΩΓΕΙΟ ΑΙΓΙΟΥ,,
1193,ΝΗΠΙΑΓΩΓΕΙΟ ΣΑΡΑΒΑΛΙΟΥ,,
1194,70ο ΝΗΠΙΑΓΩΓΕΙΟ ΠΑΤΡΩΝ,,
1195,24ο ΝΗΠΙΑΓΩΓΕΙΟ ΠΑΤΡΑΣ,,
1196,65ο ΝΗΠΙΑΓΩΓΕΙΟ ΠΑΤΡΑΣ,,
1197,37ο ΝΗΠΙΑΓΩΓΕΙΟ ΠΑΤΡΑΣ,21.743159,38.232638
1198,ΝΗΠΙΑΓΩΓΕΙΟ ΤΣΟΥΚΑΛΕΙΚΩΝ,21.646044,38.155376
1199,ΝΗΠΙΑΓΩΓΕΙΟ ΑΝΩ ΚΑΣΤΡΙΤΣΙΟΥ,21.835603,38.270294
1200,1ο ΝΗΠΙΑΓΩΓΕΙΟ ΔΕΜΕΝΙΚΩΝ,,
1201,ΝΗΠΙΑΓΩΓΕΙΟ ΣΚΙΑΔΑ,21.684834,37.881279
1202,ΝΗΠΙΑΓΩΓΕΙΟ ΚΑΜΙΝΙΩΝ,21.628096,38.148104
1203,ΝΗΠΙΑΓΩΓΕΙΟ ΑΝΩ ΑΛΙΣΣΟΥ,21.593225,38.136991
1204,ΝΗΠΙΑΓΩΓΕΙΟ ΖΗΡΙΑΣ,21.981026,38.298946
1205,46ο ΝΗΠΙΑΓΩΓΕΙΟ ΠΑΤΡΑΣ,21.727989,38.237857
1206,23ο ΝΗΠΙΑΓΩΓΕΙΟ ΠΑΤΡΑΣ,21.748392,38.211943
1207,1ο ΝΗΠΙΑΓΩΓΕΙΟ ΠΑΡΑΛΙΑΣ,,
1208,2ο ΝΗΠΙΑΓΩΓΕΙΟ ΚΑΤΩ ΑΧΑΪΑΣ,21.541724,38.142511
1209,16ο ΝΗΠΙΑΓΩΓΕΙΟ ΠΑΤΡΑΣ,21.747116,38.264917
1210,17ο ΝΗΠΙΑΓΩΓΕΙΟ ΠΑΤΡΑΣ,21.739145,38.245336
1211,19ο ΝΗΠΙΑΓΩΓΕΙΟ ΠΑΤΡΑΣ,21.74876,38.253596
1212,3ο ΝΗΠΙΑΓΩΓΕΙΟ ΑΙΓΙΟΥ,,
1213,26ο ΝΗΠΙΑΓΩΓΕΙΟ ΠΑΤΡΑΣ,21.741681,38.256574
1214,28ο ΝΗΠΙΑΓΩΓΕΙΟ ΠΑΤΡΑΣ,21.761115,38.221806
1215,25ο ΝΗΠΙΑΓΩΓΕΙΟ ΠΑΤΡΑΣ,21.736642,38.240084
1216,54ο ΝΗΠΙΑΓΩΓΕΙΟ ΠΑΤΡΑΣ,21.731785,38.236101
1217,ΝΗΠΙΑΓΩΓΕΙΟ ΡΟΔΟΔΑΦΝΗΣ,,
1218,7ο ΝΗΠΙΑΓΩΓΕΙΟ ΑΙΓΙΟΥ,,
1219,32ο ΝΗΠΙΑΓΩΓΕΙΟ ΠΑΤΡΑΣ,21.741286,38.228009
1220,6ο ΝΗΠΙΑΓΩΓΕΙΟ ΑΙΓΙΟΥ,,
1221,22ο ΝΗΠΙΑΓΩΓΕΙΟ ΠΑΤΡΑΣ,21.750547,38.231356
1222,ΝΗΠΙΑΓΩΓΕΙΟ ΔΙΑΚΟΠΤΟΥ,22.202114,38.187646
1223,10ο ΝΗΠΙΑΓΩΓΕΙΟ ΑΙΓΙΟΥ,,
1224,ΝΗΠΙΑΓΩΓΕΙΟ ΡΙΖΟΜΥΛΟΥ,22.133325,38.211141
1225,ΝΗΠΙΑΓΩΓΕΙΟ ΠΑΤΡΑΣ ΠΕΙΡΑΜΑΤΙΚΟ ΠΑΝΕΠΙΣΤΗΜΙΟΥ ΠΑΤΡΩΝ,,
1226,ΝΗΠΙΑΓΩΓΕΙΟ ΒΑΣΙΛΙΚΟΥ,,
1227,ΝΗΠΙΑΓΩΓΕΙΟ ΦΑΡΩΝ,,
1228,ΝΗΠΙΑΓΩΓΕΙΟ ΡΟΒΙΑΤΑΣ,21.303638,37.809416
1229,ΝΗΠΙΑΓΩΓΕΙΟ ΡΟΙΤΙΚΩΝ,,
1230,43ο ΝΗΠΙΑΓΩΓΕΙΟ ΠΑΤΡΑΣ,21.762851,38.27042
1231,45ο ΝΗΠΙΑΓΩΓΕΙΟ ΠΑΤΡΑΣ,21.728282,38.229402
1232,ΝΗΠΙΑΓΩΓΕΙΟ ΜΕΤΟΧΙΟΥ,21.401283,38.125358
1233,47ο ΝΗΠΙΑΓΩΓΕΙΟ ΠΑΤΡΑΣ,21.743897,38.261767
1234,49ο ΝΗΠΙΑΓΩΓΕΙΟ ΠΑΤΡΑΣ,21.763903,38.279856
1235,48ο ΝΗΠΙΑΓΩΓΕΙΟ ΠΑΤΡΑΣ,21.76286,38.275184
1236,ΝΗΠΙΑΓΩΓΕΙΟ ΨΑΘΟΠΥΡΓΟΥ,21.869264,38.321905
1237,ΝΗΠΙΑΓΩΓΕΙΟ ΑΓΙΟΥ ΒΑΣΙΛΕΙΟΥ,21.818419,38.311725
1238,56ο ΝΗΠΙΑΓΩΓΕΙΟ ΠΑΤΡΑΣ,21.742079,38.254683
1239,ΝΗΠΙΑΓΩΓΕΙΟ ΔΡΕΠΑΝΟΥ,21.855573,38.317567
1240,55ο ΝΗΠΙΑΓΩΓΕΙΟ ΠΑΤΡΑΣ,21.741467,38.22342
1241,ΝΗΠΙΑΓΩΓΕΙΟ ΩΛΕΝΗΣ,,
1242,1ο ΝΗΠΙΑΓΩΓΕΙΟ ΑΙΓΙΟΥ,22.077412,38.249371
1243,2ο ΝΗΠΙΑΓΩΓΕΙΟ ΑΙΓΙΟΥ,,
1244,1ο ΝΗΠΙΑΓΩΓΕΙΟ ΠΑΤΡΑΣ,21.733223,38.231536
1245,2ο ΝΗΠΙΑΓΩΓΕΙΟ ΠΑΤΡΑΣ,21.74284,38.23338
1246,10ο ΝΗΠΙΑΓΩΓΕΙΟ ΠΑΤΡΑΣ,21.740507,38.237879
1247,12ο ΝΗΠΙΑΓΩΓΕΙΟ ΠΑΤΡΑΣ,21.740507,38.237879
1248,13ο ΝΗΠΙΑΓΩΓΕΙΟ ΠΑΤΡΑΣ,21.733448,38.22618
1249,ΝΗΠΙΑΓΩΓΕΙΟ ΚΛΕΙΤΟΡΙΑΣ ΚΑΛΑΒΡΥΤΩΝ,22.124862,37.893874
1250,ΝΗΠΙΑΓΩΓΕΙΟ ΚΑΛΑΒΡΥΤΩΝ ΚΑΛΑΒΡΥΤ,22.112844,38.027825
1251,ΝΗΠΙΑΓΩΓΕΙΟ ΔΑΦΝΗΣ ΚΑΛΑΒΡΥΤΩΝ,,
1252,7ο ΝΗΠΙΑΓΩΓΕΙΟ ΑΜΑΛΙΑΔΑΣ,,
1253,20ο ΝΗΠΙΑΓΩΓΕΙΟ ΠΑΤΡΑΣ,21.743707,38.242452
1254,ΝΗΠΙΑΓΩΓΕΙΟ ΣΕΛΙΑΝΙΤΙΚΩΝ,22.026834,38.27827
1255,2ο ΝΗΠΙΑΓΩΓΕΙΟ ΟΒΡΙΑΣ,,
1256,60ο ΝΗΠΙΑΓΩΓΕΙΟ ΠΑΤΡΑΣ,21.728282,38.22941
1257,71ο ΝΗΠΙΑΓΩΓΕΙΟ ΠΑΤΡΑΣ,21.751566,38.228972
1258,ΝΗΠΙΑΓΩΓΕΙΟ ΚΑΡΥΑ,,
1259,11ο ΝΗΠΙΑΓΩΓΕΙΟ ΑΙΓΙΟΥ,,
1260,ΝΗΠΙΑΓΩΓΕΙΟ ΜΥΡΤΕΑΣ,21.618053,38.586635
1261,ΝΗΠΙΑΓΩΓΕΙΟ ΚΕΡΤΕΖΗΣ,21.994258,37.978906
1262,ΝΗΠΙΑΓΩΓΕΙΟ ΨΩΦΙΔΑΣ,22.077301,37.88931
1263,31ο ΝΗΠΙΑΓΩΓΕΙΟ ΠΑΤΡΑΣ,21.757638,38.224123
1264,ΝΗΠΙΑΓΩΓΕΙΟ ΛΥΚΟΥΡΙΑΣ,22.213379,37.861518
1265,ΝΗΠΙΑΓΩΓΕΙΟ ΜΑΥΡΟΜΑΝΔΗΛΑΣ,,
1266,ΝΗΠΙΑΓΩΓΕΙΟ ΣΑΛΜΕΝΙΚΟΥ,21.945006,38.263816
1267,63ο ΝΗΠΙΑΓΩΓΕΙΟ ΠΑΤΡΑΣ,,
1268,61ο ΝΗΠΙΑΓΩΓΕΙΟ ΠΑΤΡΑΣ,21.73345,38.226137
1269,ΝΗΠΙΑΓΩΓΕΙΟ ΝΙΚΟΛΑΙΙΚΩΝ,22.142838,38.203604
1270,ΝΗΠΙΑΓΩΓΕΙΟ ΚΟΥΝΙΝΑΣ,22.022891,38.192699
1271,ΝΗΠΙΑΓΩΓΕΙΟ ΚΡΙΝΟΥ,,
1272,64ο ΝΗΠΙΑΓΩΓΕΙΟ ΠΑΤΡΑΣ,,
1273,2o ΝΗΠΙΑΓΩΓΕΙΟ ΡΙΟΥ,,
1274,ΝΗΠΙΑΓΩΓΕΙΟ ΑΚΤΑΙΟΥ,21.795623,38.302466
1275,67ο ΝΗΠΙΑΓΩΓΕΙΟ ΠΑΤΡΑΣ,21.744306,38.235099
1276,62ο ΝΗΠΙΑΓΩΓΕΙΟ ΠΑΤΡΑΣ,21.721721,38.221144
1277,12ο ΝΗΠΙΑΓΩΓΕΙΟ ΑΙΓΙΟΥ,,
1278,68ο ΝΗΠΙΑΓΩΓΕΙΟ ΠΑΤΡΑΣ,21.743897,38.261767
1279,ΝΗΠΙΑΓΩΓΕΙΟ ΚΑΤΩ ΑΛΙΣΣΟΥ,21.593347,38.136811
1280,2ο ΝΗΠΙΑΓΩΓΕΙΟ ΑΚΡΑΤΑΣ,22.314949,38.15255
1281,ΝΗΠΙΑΓΩΓΕΙΟ ΦΡΑΓΚΑ,,
1282,ΝΗΠΙΑΓΩΓΕΙΟ ΣΤΑΥΡΟΔΡΟΜΙΟΥ,21.679296,37.934886
1283,ΝΗΠΙΑΓΩΓΕΙΟ ΙΣΩΜΑΤΟΣ,,
1284,15ο ΝΗΠΙΑΓΩΓΕΙΟ ΠΑΤΡΑΣ,21.735325,38.247533
1285,3ο ΝΗΠΙΑΓΩΓΕΙΟ ΟΒΡΥΑΣ,,
1286,66ο ΝΗΠΙΑΓΩΓΕΙΟ ΠΑΤΡΑΣ,21.740279,38.227905
1287,ΝΗΠΙΑΓΩΓΕΙΟ ΚΡΙΘΑΡΑΚΙΩΝ,,
1288,17ο ΝΗΠΙΑΓΩΓΕΙΟ ΑΓΡΙΝΙΟΥ,,
1289,13ο ΝΗΠΙΑΓΩΓΕΙΟ ΠΥΡΓΟΥ,,
1290,ΝΗΠΙΑΓΩΓΕΙΟ ΚΑΡΑΙΣΚΑΚΗ,21.091711,38.579728
1291,ΝΗΠΙΑΓΩΓΕΙΟ ΚΕΦΑΛΟΒΡΥΣΟΥ ΑΙΤΩΛΙΚΟΥ,,
1292,ΝΗΠΙΑΓΩΓΕΙΟ ΚΑΤΩ ΖΕΥΓΑΡΑΚΙΟΥ,21.41259,38.537626
1293,5ο ΝΗΠΙΑΓΩΓΕΙΟ ΜΕΣΟΛΟΓΓΙΟΥ,,
1294,ΝΗΠΙΑΓΩΓΕΙΟ ΠΑΝΤΑΝΑΣΣΗΣ,21.560548,38.601728
1295,3ο ΝΗΠΙΑΓΩΓΕΙΟ ΝΕΑΠΟΛΗΣ,,
1296,ΝΗΠΙΑΓΩΓΕΙΟ ΕΜΠΕΣΟΥ,21.322354,39.029473
1297,ΝΗΠΙΑΓΩΓΕΙΟ ΚΑΣΤΡΑΚΙΟΥ ΒΑΛΤΟΥ,21.348293,38.736691
1298,16ο ΝΗΠΙΑΓΩΓΕΙΟ ΑΓΡΙΝΙΟΥ,,
1299,ΝΗΠΙΑΓΩΓΕΙΟ ΡΙΓΑΝΗΣ,,
1300,ΝΗΠΙΑΓΩΓΕΙΟ ΚΟΝΟΠΙΝΑΣ,21.132179,38.750518
1301,4ο ΝΗΠΙΑΓΩΓΕΙΟ ΝΕΑΠΟΛΗΣ,,
1302,2ο ΝΗΠΙΑΓΩΓΕΙΟ ΝΕΑΠΟΛΗΣ,,
1303,ΝΗΠΙΑΓΩΓΕΙΟ ΝΕΑΣ ΑΒΟΡΑΝΗΣ,21.446884,38.607512
1304,9ο ΝΗΠΙΑΓΩΓΕΙΟ ΝΑΥΠΑΚΤΟΥ,21.834526,38.392083
1305,ΝΗΠΙΑΓΩΓΕΙΟ ΑΒΥΘΟΥ,,
1306,33ο ΝΗΠΙΑΓΩΓΕΙΟ ΠΑΤΡΑΣ,21.725438,38.238282
1307,1ο ΝΗΠΙΑΓΩΓΕΙΟ ΑΚΡΑΤΑΣ,22.314948,38.152548
1308,ΝΗΠΙΑΓΩΓΕΙΟ ΣΚΕΠΑΣΤΟΥ,22.0737,38.040341
1309,ΝΗΠΙΑΓΩΓΕΙΟ ΣΠΑΡΤΟΥ,21.110328,38.900383
1310,ΝΗΠΙΑΓΩΓΕΙΟ ΚΕΧΡΙΝΙΑΣ,21.230627,38.820662
1311,ΝΗΠΙΑΓΩΓΕΙΟ ΚΑΤΩ ΔΑΦΝΗΣ,21.86618,38.420845
1312,5ο ΝΗΠΙΑΓΩΓΕΙΟ ΝΑΥΠΑΚΤΟΥ,,
1313,6ο ΝΗΠΙΑΓΩΓΕΙΟ ΜΕΣΟΛΟΓΓΙΟΥ,,
1314,ΝΗΠΙΑΓΩΓΕΙΟ ΒΟΥΛΙΑΓΜΕΝΗΣ,21.607501,37.834516
1315,ΝΗΠΙΑΓΩΓΕΙΟ ΚΑΤΩ ΚΕΡΑΣΟΒΟΥ,21.430776,38.526747
1316,ΝΗΠΙΑΓΩΓΕΙΟ ΚΑΛΛΙΘΕΑΣ,,
1317,ΝΗΠΙΑΓΩΓΕΙΟ ΣΚΟΥΡΟΧΩΡΙΟΥ,21.359476,37.684341
1318,1ο ΝΗΠΙΑΓΩΓΕΙΟ ΠΑΝΑΙΤΩΛΙΟΥ,21.445991,38.579345
1319,5ο ΝΗΠΙΑΓΩΓΕΙΟ ΑΓΡΙΝΙΟΥ,,
1320,11ο ΝΗΠΙΑΓΩΓΕΙΟ ΑΓΡΙΝΙΟΥ,21.409598,38.616672
1321,ΝΗΠΙΑΓΩΓΕΙΟ ΑΓΙΟΥ ΑΝΔΡΕΟΥ,21.55449,38.526045
1322,ΝΗΠΙΑΓΩΓΕΙΟ ΠΑΤΡΑΣ ΕΙΔΙΚΟ ΚΩΦΩΝ ΒΑΡΗΚΟΩΝ,,
1323,ΝΗΠΙΑΓΩΓΕΙΟ ΓΑΒΑΛΟΥΣ,21.53535,38.527204
1324,ΝΗΠΙΑΓΩΓΕΙΟ ΑΓΙΑΣ ΜΑΥΡΑΣ,,
1325,ΝΗΠΙΑΓΩΓΕΙΟ ΒΑΣΙΛΑΚΙΟΥ,21.762879,37.648817
1326,ΝΗΠΙΑΓΩΓΕΙΟ ΚΛΙΝΔΙΑ,21.682216,37.781274
1327,2ο ΝΗΠΙΑΓΩΓΕΙΟ ΑΓΡΙΝΙΟΥ,,
1328,9ο ΝΗΠΙΑΓΩΓΕΙΟ ΑΓΡΙΝΙΟΥ,,
1329,ΝΗΠΙΑΓΩΓΕΙΟ ΘΥΑΜΟΥ,,
1330,3ο ΝΗΠΙΑΓΩΓΕΙΟ ΒΟΝΙΤΣΑΣ,20.883422,38.916501
1331,3ο ΝΗΠΙΑΓΩΓΕΙΟ ΑΜΦΙΛΟΧΙΑΣ,21.162018,38.860301
1332,ΝΗΠΙΑΓΩΓΕΙΟ ΧΑΛΚΙΟΠΟΥΛΟΥ,21.39457,38.975815
1333,ΝΗΠΙΑΓΩΓΕΙΟ ΚΑΤΩ ΜΑΚΡΥΝΟΥΣ,21.624418,38.486613
1334,ΝΗΠΙΑΓΩΓΕΙΟ ΓΑΛΑΤΑ,21.56025,38.352287
1335,2ο ΝΗΠΙΑΓΩΓΕΙΟ ΕΥΗΝΟΧΩΡΙΟΥ,21.534384,38.358663
1336,2ο ΝΗΠΙΑΓΩΓΕΙΟ ΠΑΝΑΙΤΩΛΙΟΥ,21.445998,38.579345
1337,ΝΗΠΙΑΓΩΓΕΙΟ ΚΑΜΑΡΟΥΛΑΣ,21.446618,38.628742
1338,ΝΗΠΙΑΓΩΓΕΙΟ ΣΠΟΛΑΙΤΑΣ,21.349936,38.696236
1339,ΝΗΠΙΑΓΩΓΕΙΟ ΑΝΟΙΞΙΑΤΙΚΟΥ,21.170372,38.970208
1340,ΝΗΠΙΑΓΩΓΕΙΟ ΔΑΦΝΙΩΤΙΣΣΑΣ,21.451861,37.842791
1341,ΝΗΠΙΑΓΩΓΕΙΟ ΠΑΛΗΑΜΠΕΛΩΝ,20.952483,38.912085
1342,ΝΗΠΙΑΓΩΓΕΙΟ ΑΝΤΙΡΡΙΟΥ,21.762605,38.333258
1343,ΝΗΠΙΑΓΩΓΕΙΟ ΚΑΣΤΡΟΥ,21.139564,37.890426
1344,2ο ΝΗΠΙΑΓΩΓΕΙΟ ΒΟΝΙΤΣΑΣ,20.883442,38.916518
1345,ΝΗΠΙΑΓΩΓΕΙΟ ΤΡΥΠΗΤΗΣ,21.784636,37.568893
1346,ΝΗΠΙΑΓΩΓΕΙΟ ΠΕΡΔΙΚΑΚΙΟΥ,,
1347,ΝΗΠΙΑΓΩΓΕΙΟ ΠΛΑΓΙΑΣ,20.780466,38.806321
1348,ΝΗΠΙΑΓΩΓΕΙΟ ΜΠΟΥΚΑΣ,,
1349,ΝΗΠΙΑΓΩΓΕΙΟ ΣΤΡΕΦΙΟΥ,21.551303,37.66598
1350,13ο ΝΗΠΙΑΓΩΓΕΙΟ ΑΓΡΙΝΙΟΥ,21.391625,38.6174
1351,ΝΗΠΙΑΓΩΓΕΙΟ ΚΑΛΥΒΙΩΝ,21.29406,38.616124
1352,2ο ΝΗΠΙΑΓΩΓΕΙΟ ΚΑΤΟΥΝΑΣ,,
1353,ΝΗΠΙΑΓΩΓΕΙΟ ΧΡΥΣΟΠΗΓΗΣ,,
1354,4ο ΝΗΠΙΑΓΩΓΕΙΟ ΝΕΟΧΩΡΙΟΥ,21.27615,38.406728
1355,ΝΗΠΙΑΓΩΓΕΙΟ ΕΛΑΙΟΧΩΡΙΟΥ,21.568983,38.079893
1356,ΝΗΠΙΑΓΩΓΕΙΟ ΕΡΥΜΑΝΘΕΙΑΣ,21.72588,37.980614
1357,ΝΗΠΙΑΓΩΓΕΙΟ ΜΕΣΑΡΙΣΤΑΣ,21.589851,38.480797
1358,ΝΗΠΙΑΓΩΓΕΙΟ ΠΑΟΥΣ,,
1359,ΝΗΠΙΑΓΩΓΕΙΟ ΛΕΥΚΗΣ,,
1360,ΝΗΠΙΑΓΩΓΕΙΟ ΣΑΡΓΙΑΔΑΣ,21.414833,38.767483
1361,ΝΗΠΙΑΓΩΓΕΙΟ ΦΛΟΚΑ,21.614233,37.644972
1362,ΝΗΠΙΑΓΩΓΕΙΟ ΠΕΤΤΑ,21.4807,38.044598
1363,3ο ΝΗΠΙΑΓΩΓΕΙΟ ΠΑΡΑΛΙΑΣ,,
1364,ΝΗΠΙΑΓΩΓΕΙΟ ΑΝΩ ΜΑΚΡΥΝΟΥΣ,21.622259,38.469675
1365,4ο ΝΗΠΙΑΓΩΓΕΙΟ ΠΑΡΑΛΙΑΣ,,
1366,ΝΗΠΙΑΓΩΓΕΙΟ ΚΑΛΑΜΙΑΣ,,
1367,74ο ΝΗΠΙΑΓΩΓΕΙΟ ΠΑΤΡΩΝ,,
1368,2ο ΝΗΠΙΑΓΩΓΕΙΟ ΑΣΤΑΚΟΥ,21.082817,38.534555
1369,ΝΗΠΙΑΓΩΓΕΙΟ ΒΡΟΧΙΤΣΑΣ,21.428536,37.735202
1370,ΝΗΠΙΑΓΩΓΕΙΟ ΦΟΛΟΗΣ,21.718199,37.789876
1371,ΝΗΠΙΑΓΩΓΕΙΟ ΗΡΑΚΛΕΙΑ,21.571454,37.693054
1372,73ο ΝΗΠΙΑΓΩΓΕΙΟ ΠΑΤΡΩΝ,,
1373,ΝΗΠΙΑΓΩΓΕΙΟ ΧΑΪΚΑΛΙΟΥ,21.663336,38.100215
1374,59ο ΝΗΠΙΑΓΩΓΕΙΟ ΠΑΤΡΑΣ,,
1375,ΝΗΠΙΑΓΩΓΕΙΟ ΠΟΡΤΩΝ,21.571559,37.936502
1376,ΝΗΠΙΑΓΩΓΕΙΟ ΑΠΙΔΕΩΝΑ,21.427419,38.074716
1377,ΝΗΠΙΑΓΩΓΕΙΟ ΜΥΡΣΙΝΗΣ,21.237101,37.920813
1378,3ο ΝΗΠΙΑΓΩΓΕΙΟ ΓΑΣΤΟΥΝΗΣ,21.245839,37.84672
1379,2ο ΝΗΠΙΑΓΩΓΕΙΟ ΔΕΜΕΝΙΚΩΝ,,
1380,4ο ΝΗΠΙΑΓΩΓΕΙΟ ΑΓΡΙΝΙΟΥ,,
1381,1ο ΝΗΠΙΑΓΩΓΕΙΟ ΜΕΣΟΛΟΓΓΙΟΥ,,
1382,ΝΗΠΙΑΓΩΓΕΙΟ ΠΑΛΑΙΟΜΑΝΙΝΗΣ ΞΗΡΟΜ,21.242132,38.548033
1383,3ο ΝΗΠΙΑΓΩΓΕΙΟ ΑΓΡΙΝΙΟΥ,21.414743,38.619601
1384,ΝΗΠΙΑΓΩΓΕΙΟ ΑΙΤΩΛΙΚΟΥ,,
1385,ΝΗΠΙΑΓΩΓΕΙΟ ΑΡΧΟΝΤΟΧΩΡΙΟΥ,21.043041,38.701035
1386,ΝΗΠΙΑΓΩΓΕΙΟ ΑΓΙΟΥ ΝΙΚΟΛΑΟΥ,20.804721,38.868568
1387,8ο ΝΗΠΙΑΓΩΓΕΙΟ ΑΓΡΙΝΙΟΥ,21.404091,38.629852
1388,1ο ΝΗΠΙΑΓΩΓΕΙΟ ΝΕΟΧΩΡΙΟΥ ΜΕΣΟΛΟΓΓΙΟΥ,21.27601,38.406708
1389,ΝΗΠΙΑΓΩΓΕΙΟ ΚΑΡΑΙΙΚΩΝ,,
1390,ΝΗΠΙΑΓΩΓΕΙΟ ΑΕΤΟΥ,21.084931,38.704226
1391,ΝΗΠΙΑΓΩΓΕΙΟ ΠΑΡΑΒΟΛΑΣ,21.525695,38.613263
1392,2ο ΝΗΠΙΑΓΩΓΕΙΟ ΜΕΣΟΛΟΓΓΙΟΥ,21.431192,38.377452
1393,50ο ΝΗΠΙΑΓΩΓΕΙΟ ΠΑΤΡΑΣ,,
1394,ΝΗΠΙΑΓΩΓΕΙΟ ΤΕΜΕΝΗΣ,22.122629,38.234633
1395,ΝΗΠΙΑΓΩΓΕΙΟ ΣΤΑΝΟΥ,21.174554,38.802104
1396,ΝΗΠΙΑΓΩΓΕΙΟ ΜΑΛΕΣΙΑΔΑΣ,21.333737,38.900279
1397,6ο ΝΗΠΙΑΓΩΓΕΙΟ ΝΑΥΠΑΚΤΟΥ,,
1398,ΝΗΠΙΑΓΩΓΕΙΟ ΛΥΣΙΜΑΧΙΑΣ,21.337701,38.544524
1399,ΝΗΠΙΑΓΩΓΕΙΟ ΚΟΜΠΟΤΗΣ,21.070943,38.75652
1400,ΝΗΠΙΑΓΩΓΕΙΟ ΑΓΓΕΛΟΚΑΣΤΡΟΥ,21.298268,38.56586
1401,7ο ΝΗΠΙΑΓΩΓΕΙΟ ΝΑΥΠΑΚΤΟΥ,,
1402,ΝΗΠΙΑΓΩΓΕΙΟ ΠΟΤΑΜΟΥΛΑΣ,21.43827,38.761516
1403,ΝΗΠΙΑΓΩΓΕΙΟ ΔΡΥΜΩΝΑ,21.665225,38.632944
1404,ΝΗΠΙΑΓΩΓΕΙΟ ΜΟΝΑΣΤΗΡΑΚΙΟΥ,20.945026,38.849792
1405,15ο ΝΗΠΙΑΓΩΓΕΙΟ ΑΓΡΙΝΙΟΥ,21.409575,38.615615
1406,9ο ΝΗΠΙΑΓΩΓΕΙΟ ΑΙΓΙΟΥ,22.077393,38.24938
1407,ΝΗΠΙΑΓΩΓΕΙΟ ΡΙΟΛΟΥ,21.46512,38.056752
1408,1ο ΝΗΠΙΑΓΩΓΕΙΟ ΛΕΧΑΙΝΩΝ,21.261523,37.937358
1409,ΝΗΠΙΑΓΩΓΕΙΟ ΑΝΔΡΑΒΙΔΑΣ ΛΕΧΑΙΝΩΝ,21.2704,37.905457
1410,2ο ΝΗΠΙΑΓΩΓΕΙΟ ΠΥΡΓΟΥ,,
1411,ΝΗΠΙΑΓΩΓΕΙΟ ΘΕΡΜΟΥ,21.667918,38.571816
1412,2ο ΝΗΠΙΑΓΩΓΕΙΟ ΑΝΔΡΑΒΙΔΑΣ,,
1413,ΝΗΠΙΑΓΩΓΕΙΟ ΣΚΑΛΑΣ,21.843565,38.421736
1414,ΝΗΠΙΑΓΩΓΕΙΟ ΑΕΡΟΔΡΟΜΙΟΥ ΑΡΑΞΟΥ,,
1415,ΝΗΠΙΑΓΩΓΕΙΟ ΒΕΛΙΤΣΩΝ,,
1416,30ο ΝΗΠΙΑΓΩΓΕΙΟ ΠΑΤΡΑΣ,21.744274,38.235123
1417,"ΙΔΙΩΤΙΚΟ ΓΥΜΝΑΣΙΟ ""ΠΑΛΛΑΔΙΟ"" ΑΓΡΙΝΙΟΥ",,
1418,"ΙΔΙΩΤΙΚΟ ΓΥΜΝΑΣΙΟ ""ΕΚΠΑΙΔΕΥΤΗΡΙΑ ΤΣΑΠΑΚΙΔΗ""",,
1419,"ΙΔΙΩΤΙΚΟ ΓΥΜΝΑΣΙΟ ""Β. ΣΩΤΗΡΧΟΠΟΥΛΟΣ""",,
1420,"ΙΔΙΩΤΙΚΟ ΓΥΜΝΑΣΙΟ ""ΑΡΣΑΚΕΙΟ ΠΑΤΡΩΝ""",,
1421,"ΙΔΙΩΤΙΚΟ ΕΝΙΑΙΟ ΛΥΚΕΙΟ ""Β. ΣΩΤΗΡΧΟΠΟΥΛΟΣ""",,
1422,"ΙΔΙΩΤΙΚΟ ΕΝΙΑΙΟ ΛΥΚΕΙΟ ""ΑΚΜΗ""",,
1423,"ΙΔΙΩΤΙΚΟ ΕΝΙΑΙΟ ΛΥΚΕΙΟ ""ΑΡΣΑΚΕΙΟ ΠΑΤΡΩΝ""",,
1424,"ΙΔΙΩΤΙΚΟ ΕΝΙΑΙΟ ΛΥΚΕΙΟ "" ΠΑΛΛΑΔΙΟ"" ΑΓΡΙΝΙΟΥ",,
1425,"ΙΔΙΩΤΙΚΟ ΕΝΙΑΙΟ ΛΥΚΕΙΟ ""ΕΚΠΑΙΔΕΥΤΗΡΙΑ ΤΣΑΠΑΚΙΔΗ""",,
1426,ΚΕΝΤΡΟ ΠΕΡΙΒΑΛΛΟΝΤΙΚΗΣ ΕΚΠΑΙΔΕΥΣΗΣ ΑΚΡΑΤΑΣ (ΠΑΡΑΡΤΗΜΑ ΚΠΕ ΚΛΕΙΤΟΡΙΑΣ),,
1427,ΔΗΜΟΤΙΚΟ ΣΧΟΛΕΙΟ ΚΕΡΙΟΥ,20.817181,37.661361
1428,ΚΕΝΤΡΟ ΠΕΡΙΒΑΛΛΟΝΤΙΚΗΣ ΕΚΠΑΙΔΕΥΣΗΣ ΘΕΡΜΟΥ ΑΙΤΩΛΟΑΚΑΡΝΑΝΙΑΣ,,
1429,ΣΧΟΛΕΙΟ ΔΕΥΤΕΡΗΣ ΕΥΚΑΙΡΙΑΣ ΠΑΤΡΑΣ,,
1430,ΣΧΟΛΕΙΟ ΔΕΥΤΕΡΗΣ ΕΥΚΑΙΡΙΑΣ ΠΥΡΓΟΥ,,
1431,ΣΧΟΛΕΙΟ ΔΕΥΤΕΡΗΣ ΕΥΚΑΙΡΙΑΣ ΑΓΡΙΝΙΟΥ,21.40444,38.619399
1432,"ΔΗΜΟΤΙΚΗ ΒΙΒΛΙΟΘΗΚΗ ΑΓΡΙΝΙΟΥ ""ΠΑΠΑΣΤΡΑΤΕΙΟΣ""",,
1433,"ΔΗΜΟΤΙΚΗ ΒΙΒΛΙΟΘΗΚΗ ΜΕΣΟΛΟΓΓΙΟΥ ""ΒΑΛΒΕΙΟΣ""",,
1434,ΔΗΜΟΤΙΚΗ ΒΙΒΛΙΟΘΗΚΗ ΑΜΦΙΛΟΧΙΑΣ,,
1435,ΔΗΜΟΣΙΑ ΒΙΒΛΙΟΘΗΚΗ ΠΥΡΓΟΥ ΚΕΝΤΡΙΚΗ,21.439802,37.671649
1436,ΔΗΜΟΣΙΑ ΒΙΒΛΙΟΘΗΚΗ ΑΝΔΡΙΤΣΑΙΝΑΣ,21.905834,37.483548
1437,ΔΗΜΟΣΙΑ ΒΙΒΛΙΟΘΗΚΗ ΝΑΥΠΑΚΤΟΥ ΚΕΝΤΡΙΚΗ,21.828093,38.395188
1438,ΓΕΝΙΚΑ ΑΡΧΕΙΑ ΤΟΥ ΚΡΑΤΟΥΣ-ΑΡΧΕΙΑ Ν. ΗΛΕΙΑΣ,,
1439,ΓΕΝΙΚΑ ΑΡΧΕΙΑ ΤΟΥ ΚΡΑΤΟΥΣ-ΤΟΠΙΚΟ ΑΡΧΕΙΟ ΑΙΓΙΟΥ,22.075911,38.248484
1440,ΓΕΝΙΚΑ ΑΡΧΕΙΑ ΤΟΥ ΚΡΑΤΟΥΣ-ΑΡΧΕΙΑ Ν. ΑΧΑΙΑΣ,,
1441,ΓΕΝΙΚΑ ΑΡΧΕΙΑ ΤΟΥ ΚΡΑΤΟΥΣ-ΑΡΧΕΙΑ Ν. ΑΙΤΩΛΟΑΚΑΡΝΑΝΙΑΣ,,
1442,ΕΙΔΙΚΟ ΕΡΓΑΣΤΗΡΙΟ ΕΠΑΓΓΕΛΜΑΤΙΚΗΣ ΕΚΠΑΙΔΕΥΣΗΣ ΚΑΙ ΚΑΤΑΡΤΙΣΗΣ ΑΧΑΪΑΣ,,
1443,ΕΙΔΙΚΟ ΕΡΓΑΣΤΗΡΙΟ ΕΠΑΓΓΕΛΜΑΤΙΚΗΣ ΕΚΠΑΙΔΕΥΣΗΣ ΚΑΙ ΚΑΤΑΡΤΙΣΗΣ ΗΛΕΙΑΣ,,
1444,ΕΙΔΙΚΟ ΕΡΓΑΣΤΗΡΙΟ ΕΠΑΓΓΕΛΜΑΤΙΚΗΣ ΕΚΠΑΙΔΕΥΣΗΣ ΚΑΙ ΚΑΤΑΡΤΙΣΗΣ ΝΑΥΠΑΚΤΟΥ,,
1445,ΕΙΔΙΚΟ ΕΡΓΑΣΤΗΡΙΟ ΕΠΑΓΓΕΛΜΑΤΙΚΗΣ ΕΚΠΑΙΔΕΥΣΗΣ ΚΑΙ ΚΑΤΑΡΤΙΣΗΣ ΑΓΡΙΝΙΟΥ,,
1446,ΓΡΑΦΕΙΟ ΠΕΡΙΒΑΛΛΟΝΤΙΚΗΣ ΕΚΠΑΙΔΕΥΣΗΣ ΗΛΕΙΑΣ,,
1447,ΓΡΑΦΕΙΟ ΠΕΡΙΒΑΛΛΟΝΤΙΚΗΣ ΕΚΠΑΙΔΕΥΣΗΣ ΑΧΑΙΑΣ,,
1448,ΓΡΑΦΕΙΟ ΠΕΡΙΒΑΛΛΟΝΤΙΚΗΣ ΕΚΠΑΙΔΕΥΣΗΣ ΑΙΤΩΛΟΑΚΑΡΝΑΝΙΑΣ,,
1449,ΚΕΝΤΡΟ ΔΙΑΓΝΩΣΗΣ ΑΞΙΟΛΟΓΗΣΗΣ ΚΑΙ ΥΠΟΣΤΗΡΙΞΗΣ ΑΤΟΜΩΝ ΜΕ ΕΙΔΙΚΕΣ ΕΚΠΑΙΔΕΥΤΙΚΕΣ ΑΝΑΓΚΕΣ ΑΙΤΩΛ/ΝΙΑΣ,,
1450,ΚΕΝΤΡΟ ΔΙΑΓΝΩΣΗΣ ΑΞΙΟΛΟΓΗΣΗΣ ΚΑΙ ΥΠΟΣΤΗΡΙΞΗΣ ΑΤΟΜΩΝ ΜΕ ΕΙΔΙΚΕΣ ΕΚΠΑΙΔΕΥΤΙΚΕΣ ΑΝΑΓΚΕΣ ΗΛΕΙΑΣ,,
1451,ΚΕΝΤΡΟ ΔΙΑΓΝΩΣΗΣ ΑΞΙΟΛΟΓΗΣΗΣ ΚΑΙ ΥΠΟΣΤΗΡΙΞΗΣ ΑΤΟΜΩΝ ΜΕ ΕΙΔΙΚΕΣ ΕΚΠΑΙΔΕΥΤΙΚΕΣ ΑΝΑΓΚΕΣ ΑΧΑΪΑΣ,,
1452,ΠΕΡΙΦΕΡΕΙΑΚΗ ΔΙΕΥΘΥΝΣΗ ΕΚΠΑΙΔΕΥΣΗΣ ΔΥΤΙΚΗΣ ΕΛΛΑΔΑΣ,,
1453,ΚΟΜΒΟΣ ΔΙΑΝΟΜΗΣ ΠΣΔ ΝΟΜΟΥ ΑΙΤΩΛΟΑΚΑΡΝΑΝΙΑΣ,,
1454,ΚΟΜΒΟΣ ΔΙΑΝΟΜΗΣ ΠΣΔ ΝΟΜΟΥ ΑΧΑΙΑΣ,,
1455,ΚΟΜΒΟΣ ΔΙΑΝΟΜΗΣ ΠΣΔ ΝΟΜΟΥ ΗΛΕΙΑΣ,,
1456,HELPDESK ΙΝΣΤΙΤΟΥΤΟΥ ΤΕΧΝΟΛΟΓΙΑΣ ΥΠΟΛΟΓΙΣΤΩΝ,,
1457,ΚΕΝΤΡΟ ΕΚΠΑΙΔΕΥΣΗΣ ΕΝΗΛΙΚΩΝ ΑΙΤΩΛΟΑΚΑΡΝΑΝΙΑΣ,,
1458,ΚΕΝΤΡΟ ΕΚΠΑΙΔΕΥΣΗΣ ΕΝΗΛΙΚΩΝ ΗΛΕΙΑΣ,,
1459,ΓΥΜΝΑΣΙΟ ΚΕΡΑΜΕΙΩΝ,20.55821,38.119838
1460,ΓΥΜΝΑΣΙΟ ΑΡΓΟΣΤΟΛΙΟΥ ΕΣΠΕΡΙΝΟ,,
1461,ΓΥΜΝΑΣΙΟ ΣΑΜΗΣ,20.651016,38.250886
1462,1ο ΓΥΜΝΑΣΙΟ ΑΡΓΟΣΤΟΛΙΟΥ,20.48071,38.173859
1463,ΓΥΜΝΑΣΙΟ ΠΑΣΤΡΑΣ ΚΕΦΑΛΛΟΝΙΑΣ,20.757429,38.096022
1464,ΓΥΜΝΑΣΙΟ ΛΗΞΟΥΡΙΟΥ,20.434147,38.19885
1465,3ο ΓΥΜΝΑΣΙΟ ΑΡΓΟΣΤΟΛΙΟΥ,20.484397,38.176625
1466,ΔΗΜΟΤΙΚΟ ΣΧΟΛΕΙΟ ΚΕΡΑΜΙΩΝ,20.556696,38.120004
1467,2ο ΓΥΜΝΑΣΙΟ ΑΡΓΟΣΤΟΛΙΟΥ,20.484397,38.176625
1468,ΔΗΜΟΤΙΚΟ ΣΧΟΛΕΙΟ ΜΑΡΙΩΝ,20.677976,37.815821
1469,ΓΥΜΝΑΣΙΟ ΒΑΝΑΤΟΥ ΖΑΚΥΝΘΟΥ,20.85153,37.795938
1470,ΓΥΜΝΑΣΙΟ ΚΑΤΑΣΤΑΡΙΟΥ,20.760143,37.828951
1471,ΔΗΜΟΤΙΚΟ ΣΧΟΛΕΙΟ ΟΡΘΟΝΙΩΝ,20.694289,37.850475
1472,ΓΥΜΝΑΣΙΟ ΖΑΚΥΝΘΟΥ ΜΟΥΣΙΚΟ,20.890269,37.775436
1473,3ο ΓΥΜΝΑΣΙΟ ΖΑΚΥΝΘΟΥ,20.890269,37.775436
1474,ΔΗΜΟΤΙΚΟ ΣΧΟΛΕΙΟ ΑΓΙΟΥ ΓΕΡΑΣΙΜΟΥ,,
1475,ΓΥΜΝΑΣΙΟ ΛΙΘΑΚΙΑΣ ΖΑΚΥΝΘΟΥ,20.831015,37.71877
1476,2ο ΓΥΜΝΑΣΙΟ ΖΑΚΥΝΘΟΥ,20.890269,37.775436
1477,ΓΥΜΝΑΣΙΟ ΒΟΛΙΜΩΝ ΖΑΚΥΝΘΟΥ,20.66076,37.874527
1478,1ο ΓΥΜΝΑΣΙΟ ΖΑΚΥΝΘΟΥ,20.892614,37.78706
1479,ΓΥΜΝΑΣΙΟ ΖΑΚΥΝΘΟΥ ΕΣΠΕΡΙΝΟ,20.892332,37.776455
1480,ΕΝΙΑΙΟ ΛΥΚΕΙΟ ΖΑΚΥΝΘΟΥ ΜΟΥΣΙΚΟ,20.892837,37.787499
1481,ΔΗΜΟΤΙΚΟ ΣΧΟΛΕΙΟ ΕΞΩΧΩΡΑΣ,20.686016,37.801123
1482,3ο ΕΝΙΑΙΟ ΛΥΚΕΙΟ ΚΑΤΑΣΤΑΡΙΟΥ ΖΑΚΥΝΘΟΥ,20.760143,37.828951
1483,1ο ΕΝΙΑΙΟ ΛΥΚΕΙΟ ΖΑΚΥΝΘΟΥ,20.892614,37.78706
1484,2ο ΕΝΙΑΙΟ ΛΥΚΕΙΟ ΖΑΚΥΝΘΟΥ,20.895504,37.786927
1485,1ο ΕΝΙΑΙΟ ΛΥΚΕΙΟ ΑΡΓΟΣΤΟΛΙΟΥ,20.48071,38.173859
1486,ΕΝΙΑΙΟ ΛΥΚΕΙΟ ΙΘΑΚΗΣ,20.719584,38.362071
1487,ΕΝΙΑΙΟ ΛΥΚΕΙΟ ΛΗΞΟΥΡΙΟΥ,20.434147,38.19885
1488,2ο ΕΝΙΑΙΟ ΛΥΚΕΙΟ ΑΡΓΟΣΤΟΛΙΟΥ,20.484397,38.176625
1489,ΕΝΙΑΙΟ ΛΥΚΕΙΟ ΣΑΜΗΣ,20.651016,38.250886
1490,1ο ΤΕΕ ΙΘΑΚΗΣ,20.719584,38.362071
1491,2ο ΤΕΕ ΖΑΚΥΝΘΟΥ,,
1492,1ο ΤΕΕ ΛΗΞΟΥΡΙΟΥ,20.434147,38.19885
1493,1ο ΤΕΕ ΑΡΓΟΣΤΟΛΙΟΥ,20.484397,38.176625
1494,1ο ΤΕΕ ΖΑΚΥΝΘΟΥ,20.895626,37.787365
1495,1ο ΣΕΚ ΖΑΚΥΝΘΟΥ,,
1496,ΔΗΜΟΤΙΚΟ ΣΧΟΛΕΙΟ ΚΥΨΕΛΗΣ,,
1497,ΔΗΜΟΤΙΚΟ ΣΧΟΛΕΙΟ ΚΟΙΛΙΩΜΕΝΟΥ,,
1498,1ο ΔΗΜΟΤΙΚΟ ΣΧΟΛΕΙΟ ΑΡΓΟΣΤΟΛΙΟΥ,20.48153,38.173773
1499,ΔΗΜΟΤΙΚΟ ΣΧΟΛΕΙΟ ΑΓΙΟΥ ΛΕΟΝΤΟΣ,,
1500,ΔΗΜΟΤΙΚΟ ΣΧΟΛΕΙΟ ΧΑΤΖΗ ΠΥΛΙΑΣ,21.829106,37.016693
1501,ΔΗΜΟΤΙΚΟ ΣΧΟΛΕΙΟ ΙΘΑΚΗΣ,20.71987,38.360769
1502,ΔΗΜΟΤΙΚΟ ΣΧΟΛΕΙΟ ΠΛΑΝΟΥ,,
1503,ΔΗΜΟΤΙΚΟ ΣΧΟΛΕΙΟ ΔΗΜΗΤΣΑΝΗΣ ΓΟΡΤΥΝΙΑΣ,22.041364,37.594996
1504,ΔΗΜΟΤΙΚΟ ΣΧΟΛΕΙΟ ΚΟΛΛΙΝΩΝ ΜΑΝΤΙΝΕΙΑΣ,22.362528,37.285956
1505,ΔΗΜΟΤΙΚΟ ΣΧΟΛΕΙΟ ΦΛΩΜΟΧΩΡΙΟΥ,,
1506,1ο ΔΗΜΟΤΙΚΟ ΣΧΟΛΕΙΟ ΛΗΞΟΥΡΙΟΥ,20.43254,38.197904
1507,ΔΗΜΟΤΙΚΟ ΣΧΟΛΕΙΟ ΠΟΡΟΥ,20.768262,38.145926
1508,ΔΗΜΟΤΙΚΟ ΣΧΟΛΕΙΟ ΛΑΓΚΑΔΙΩΝ ΓΟΡΤΥΝΙΑΣ,22.009971,37.696547
1509,5ο ΔΗΜΟΤΙΚΟ ΣΧΟΛΕΙΟ ΑΡΓΟΣΤΟΛΙΟΥ,,
1510,ΔΗΜΟΤΙΚΟ ΣΧΟΛΕΙΟ ΒΑΛΤΕΣΙΝΙΚΟΥ ΓΟΡΤΥΝΙΑΣ,22.097715,37.703756
1511,ΔΗΜΟΤΙΚΟ ΣΧΟΛΕΙΟ ΛΙΘΑΚΙΑΣ,20.830256,37.718702
1512,ΔΗΜΟΤΙΚΟ ΣΧΟΛΕΙΟ ΓΕΡΑΚΑΡΙΩΝ,20.793174,37.8229
1513,3ο ΔΗΜΟΤΙΚΟ ΣΧΟΛΕΙΟ ΡΙΖΑΣ,,
1514,ΔΗΜΟΤΙΚΟ ΣΧΟΛΕΙΟ ΑΓΙΟΥ ΠΕΤΡΟΥ ΚΥΝΟΥΡΙΑΣ,22.549547,37.325797
1515,ΔΗΜΟΤΙΚΟ ΣΧΟΛΕΙΟ ΜΕΣΟΒΟΥΝΙΩΝ,20.572434,38.406047
1516,ΔΗΜΟΤΙΚΟ ΣΧΟΛΕΙΟ ΚΑΤΑΣΤΑΡΙΟΥ,20.758324,37.829207
1517,ΔΗΜΟΤΙΚΟ ΣΧΟΛΕΙΟ ΑΓΟΡΙΑΝΗΣ ΛΑΚΕΔΑΙΜΟΝΟΣ,22.270253,37.204819
1518,ΔΗΜΟΤΙΚΟ ΣΧΟΛΕΙΟ ΑΛΙΚΩΝ,22.43556,36.46608
1519,ΔΗΜΟΤΙΚΟ ΣΧΟΛΕΙΟ ΜΟΥΖΑΚΙΟΥ,20.823343,37.735049
1520,ΔΗΜΟΤΙΚΟ ΣΧΟΛΕΙΟ ΡΕΙΧΕΑΣ ΜΟΛΑΩΝ,23.009038,36.843703
1521,3ο ΔΗΜΟΤΙΚΟ ΣΧΟΛΕΙΟ ΑΡΓΟΣΤΟΛΙΟΥ,20.484824,38.168163
1522,4ο ΔΗΜΟΤΙΚΟ ΣΧΟΛΕΙΟ ΑΡΓΟΣΤΟΛΙΟΥ,20.479773,38.177008
1523,2ο ΔΗΜΟΤΙΚΟ ΣΧΟΛΕΙΟ ΛΗΞΟΥΡΙΟΥ,20.432538,38.198035
1524,2ο ΔΗΜΟΤΙΚΟ ΣΧΟΛΕΙΟ ΑΡΓΟΣΤΟΛΙΟΥ,20.481468,38.173948
1525,ΔΗΜΟΤΙΚΟ ΣΧΟΛΕΙΟ ΣΚΟΥΛΗΚΑΔΟΥ,,
1526,ΔΗΜΟΤΙΚΟ ΣΧΟΛΕΙΟ ΚΑΛΛΙΘΕΑΣ ΛΑΚΕΔΑΙΜΟΝΟΣ,22.644408,37.086448
1527,1ο ΔΗΜΟΤΙΚΟ ΣΧΟΛΕΙΟ ΡΙΖΑΣ,,
1528,"ΔΗΜΟΤΙΚΟ ΣΧΟΛΕΙΟ ΚΑΜΠΟΥ ""ΠΑΝΑΓΙΩΤΗΣ ΧΙΩΤΗΣ""",,
1529,6ο ΔΗΜΟΤΙΚΟ ΣΧΟΛΕΙΟ ΖΑΚΥΝΘΟΥ,,
1530,5ο ΔΗΜΟΤΙΚΟ ΣΧΟΛΕΙΟ ΖΑΚΥΝΘΟΥ,,
1531,ΔΗΜΟΤΙΚΟ ΣΧΟΛΕΙΟ ΤΡΑΓΑΚΙΟΥ-ΔΕΡΜΑΤΟΥΣΑΣ,20.832453,37.813119
1532,ΔΗΜΟΤΙΚΟ ΣΧΟΛΕΙΟ ΠΑΝΤΟΚΡΑΤΟΡΟΣ,20.827836,37.730777
1533,ΔΗΜΟΤΙΚΟ ΣΧΟΛΕΙΟ ΒΑΜΒΑΚΟΥΣ ΛΑΚΕΔΑΙΜΟΝΟΣ,,
1534,3ο ΔΗΜΟΤΙΚΟ ΣΧΟΛΕΙΟ ΖΑΚΥΝΘΟΥ,,
1535,ΔΗΜΟΤΙΚΟ ΣΧΟΛΕΙΟ ΑΜΠΕΛΟΚΗΠΩΝ,20.86959,37.759678
1536,ΔΗΜΟΤΙΚΟ ΣΧΟΛΕΙΟ ΛΟΓΚΑΝΙΚΟΥ ΛΑΚΕΔΑΙΜΟΝΟΣ,22.24832,37.235402
1537,ΔΗΜΟΤΙΚΟ ΣΧΟΛΕΙΟ ΚΟΙΤΤΑΣ,22.405304,36.509499
1538,4ο ΔΗΜΟΤΙΚΟ ΣΧΟΛΕΙΟ ΖΑΚΥΝΘΟΥ,,
1539,2ο ΔΗΜΟΤΙΚΟ ΣΧΟΛΕΙΟ ΖΑΚΥΝΘΟΥ,,
1540,1ο ΔΗΜΟΤΙΚΟ ΣΧΟΛΕΙΟ ΖΑΚΥΝΘΟΥ,,
1541,ΔΗΜΟΤΙΚΟ ΣΧΟΛΕΙΟ ΒΑΣΙΛΙΚΟΥ,20.983612,37.71407
1542,ΔΗΜΟΤΙΚΟ ΣΧΟΛΕΙΟ ΙΘΑΚΗΣ ΕΙΔΙΚΟ,,
1543,ΔΗΜΟΤΙΚΟ ΣΧΟΛΕΙΟ ΠΕΡΑΤΑΤΩΝ ΕΙΔΙΚΟ,,
1544,ΔΗΜΟΤΙΚΟ ΣΧΟΛΕΙΟ ΖΑΚΥΝΘΟΥ ΕΙΔΙΚΟ,,
1545,ΔΗΜΟΤΙΚΟ ΣΧΟΛΕΙΟ ΚΑΜΠΟΥ,22.205421,36.935888
1546,ΔΗΜΟΤΙΚΟ ΣΧΟΛΕΙΟ ΛΕΟΝΤΑ,,
1547,2ο ΔΗΜΟΤΙΚΟ ΣΧΟΛΕΙΟ ΡΙΖΑΣ,,
1548,ΔΙΕΥΘΥΝΣΗ Δ.Ε. ΚΕΦΑΛΛΗΝΙΑΣ,20.484397,38.176625
1549,ΔΙΕΥΘΥΝΣΗ Δ.Ε. ΖΑΚΥΝΘΟΥ,20.893253,37.787418
1550,1ο ΕΡΓΑΣΤΗΡΙΑΚΟ ΚΕΝΤΡΟ ΦΥΣΙΚΩΝ ΕΠΙΣΤΗΜΩΝ ΚΕΦΑΛΛΗΝΙΑΣ (ΑΡΓΟΣΤΟΛΙ),20.484397,38.176625
1551,1ο ΕΡΓΑΣΤΗΡΙΑΚΟ ΚΕΝΤΡΟ ΦΥΣΙΚΩΝ ΕΠΙΣΤΗΜΩΝ ΖΑΚΥΝΘΟΥ (ΖΑΚΥΝΘΟΣ),20.898347,37.769898
1552,ΚΕΣΥΠ ΖΑΚΥΝΘΟΥ,20.893253,37.787418
1553,ΚΕΣΥΠ ΚΕΦΑΛΛΟΝΙΑΣ,20.484397,38.176625
1554,ΙΕΚ ΛΗΞΟΥΡΙΟΥ,,
1555,ΙΕΚ ΚΕΦΑΛΛΟΝΙΑΣ,,
1556,ΙΕΚ ΙΘΑΚΗΣ,,
1557,ΙΕΚ ΖΑΚΥΝΘΟΥ,,
1558,ΔΙΕΥΘΥΝΣΗ Π.Ε. ΖΑΚΥΝΘΟΥ,,
1559,ΔΙΕΥΘΥΝΣΗ Π.Ε. ΚΕΦΑΛΛΗΝΙΑΣ,,
1560,ΝΗΠΙΑΓΩΓΕΙΟ ΒΟΥΓΙΑΤΟΥ,20.804727,37.763363
1561,ΝΗΠΙΑΓΩΓΕΙΟ ΑΓΙΟΥ ΔΗΜΗΤΡΙΟΥ,20.800668,37.800939
1562,6ο ΝΗΠΙΑΓΩΓΕΙΟ ΖΑΚΥΝΘΟΥ,,
1563,ΝΗΠΙΑΓΩΓΕΙΟ ΜΟΥΖΑΚΙΟΥ,20.823344,37.735049
1564,ΝΗΠΙΑΓΩΓΕΙΟ ΑΓΙΟΥ ΛΕΟΝΤΑ,20.720795,37.76688
1565,ΝΗΠΙΑΓΩΓΕΙΟ ΤΡΑΓΑΚΙΟΥ,20.832524,37.813066
1566,ΝΗΠΙΑΓΩΓΕΙΟ ΡΟΜΙΡΙΟΥ,20.819632,37.74775
1567,7ο ΝΗΠΙΑΓΩΓΕΙΟ ΖΑΚΥΝΘΟΥ,,
1568,ΝΗΠΙΑΓΩΓΕΙΟ ΠΛΑΝΟΥ,20.861793,37.815554
1569,ΝΗΠΙΑΓΩΓΕΙΟ ΚΑΛΑΜΑΚΙΟΥ,20.897668,37.744994
1570,ΝΗΠΙΑΓΩΓΕΙΟ ΜΕΣΟΥ ΓΕΡΑΚΑΡΙΟΥ,20.807436,37.821025
1571,ΝΗΠΙΑΓΩΓΕΙΟ ΜΑΡΙΩΝ,20.677973,37.81582
1572,ΝΗΠΙΑΓΩΓΕΙΟ ΒΑΣΙΛΙΚΟΥ,20.983608,37.714172
1573,ΝΗΠΙΑΓΩΓΕΙΟ ΑΡΓΑΣΙΟΥ,20.916048,37.760378
1574,ΝΗΠΙΑΓΩΓΕΙΟ ΚΥΨΕΛΗΣ,20.825565,37.81865
1575,ΝΗΠΙΑΓΩΓΕΙΟ ΦΑΡΑΚΛΑΔΩΝ,20.522243,38.201524
1576,ΝΗΠΙΑΓΩΓΕΙΟ ΧΙΟΝΑΤΩΝ,20.721767,38.079951
1577,ΝΗΠΙΑΓΩΓΕΙΟ ΛΑΚΗΘΡΑΣ,20.520887,38.127251
1578,ΝΗΠΙΑΓΩΓΕΙΟ ΚΕΡΑΜΙΩΝ,20.556764,38.120138
1579,ΝΗΠΙΑΓΩΓΕΙΟ ΣΠΑΡΤΙΩΝ,20.562826,38.110336
1580,ΝΗΠΙΑΓΩΓΕΙΟ ΒΛΑΧΑΤΩΝ,20.627455,38.123224
1581,ΝΗΠΙΑΓΩΓΕΙΟ ΠΛΑΤΡΕΙΘΙΑΣ,20.6521,38.456936
1582,ΝΗΠΙΑΓΩΓΕΙΟ ΜΕΣΟΒΟΥΝΙΩΝΝ,20.572406,38.405986
1583,ΝΗΠΙΑΓΩΓΕΙΟ ΜΕΤΑΞΑΤΩΝ,20.536678,38.11649
1584,ΝΗΠΙΑΓΩΓΕΙΟ ΜΑΚΡΥΩΤΙΚΩΝ,20.557246,38.306859
1585,ΝΗΠΙΑΓΩΓΕΙΟ ΣΚΑΛΑΣ,20.790881,38.073471
1586,ΝΗΠΙΑΓΩΓΕΙΟ ΑΓΙΟΥ ΕΥΦΗΜΙΑΣ,20.594103,38.302804
1587,ΝΗΠΙΑΓΩΓΕΙΟ ΑΓΙΟΥ ΓΕΡΑΣΙΜΟΥ,,
1588,ΝΗΠΙΑΓΩΓΕΙΟ ΣΑΜΗΣ,20.649114,38.250624
1589,2ο ΝΗΠΙΑΓΩΓΕΙΟ ΛΗΞΟΥΡΙΟΥ,20.432537,38.19815
1590,ΝΗΠΙΑΓΩΓΕΙΟ ΙΘΑΚΗΣ,20.72023,38.360505
1591,2ο ΝΗΠΙΑΓΩΓΕΙΟ ΑΡΓΟΣΤΟΛΙΟΥ,,
1592,3ο ΝΗΠΙΑΓΩΓΕΙΟ ΑΡΓΟΣΤΟΛΙΟΥ,,
1593,1ο ΝΗΠΙΑΓΩΓΕΙΟ ΛΗΞΟΥΡΙΟΥ,20.432541,38.198091
1594,ΝΗΠΙΑΓΩΓΕΙΟ ΔΙΛΙΝΑΤΩΝ,20.517588,38.222806
1595,ΝΗΠΙΑΓΩΓΕΙΟ ΠΟΡΟΥ,20.768257,38.146035
1596,ΝΗΠΙΑΓΩΓΕΙΟ ΠΑΣΤΡΑΣ,20.756043,38.096442
1597,1ο ΝΗΠΙΑΓΩΓΕΙΟ ΑΡΓΟΣΤΟΛΙΟΥ,,
1598,ΝΗΠΙΑΓΩΓΕΙΟ ΚΑΤΑΣΤΑΡΙΟΥ,20.758325,37.829201
1599,ΝΗΠΙΑΓΩΓΕΙΟ ΙΘΑΚΗΣ ΕΙΔΙΚΟ,,
1600,ΝΗΠΙΑΓΩΓΕΙΟ ΠΕΡΑΤΑΤΩΝ ΕΙΔΙΚΟ,,
1601,2ο ΝΗΠΙΑΓΩΓΕΙΟ ΖΑΚΥΝΘΟΥ,,
1602,1ο ΝΗΠΙΑΓΩΓΕΙΟ ΖΑΚΥΝΘΟΥ,,
1603,ΝΗΠΙΑΓΩΓΕΙΟ ΟΡΘΟΝΙΩΝ,20.694289,37.850475
1604,ΝΗΠΙΑΓΩΓΕΙΟ ΚΑΡΔΑΚΑΤΩΝ,20.469052,38.274728
1605,ΝΗΠΙΑΓΩΓΕΙΟ ΑΓΚΩΝΑ,20.490388,38.300745
1606,4ο ΝΗΠΙΑΓΩΓΕΙΟ ΑΡΓΟΣΤΟΛΙΟΥ,,
1607,ΝΗΠΙΑΓΩΓΕΙΟ ΛΗΞΟΥΡΙ,20.432544,38.19797
1608,ΝΗΠΙΑΓΩΓΕΙΟ ΑΝΩ ΒΟΛΙΜΩΝ,20.669772,37.876421
1609,4ο ΝΗΠΙΑΓΩΓΕΙΟ ΖΑΚΥΝΘΟΥ,,
1610,3ο ΝΗΠΙΑΓΩΓΕΙΟ ΖΑΚΥΝΘΟΥ,,
1611,ΝΗΠΙΑΓΩΓΕΙΟ ΓΑΙΤΑΝΙΟΥ,20.874326,37.789825
1612,ΝΗΠΙΑΓΩΓΕΙΟ ΚΑΤΩ ΓΕΡΑΚΑΡΙΟΥ,20.810846,37.811998
1613,ΝΗΠΙΑΓΩΓΕΙΟ ΚΟΙΛΙΩΜΕΝΟΥ,20.77426,37.747239
1614,5ο ΝΗΠΙΑΓΩΓΕΙΟ ΖΑΚΥΝΘΟΥ,,
1615,ΝΗΠΙΑΓΩΓΕΙΟ ΑΓΙΩΝ ΠΑΝΤΩΝ,20.77597,37.781281
1616,ΝΗΠΙΑΓΩΓΕΙΟ ΑΓΙΟΥ ΚΗΡΥΚΟΥ,20.831576,37.789096
1617,ΝΗΠΙΑΓΩΓΕΙΟ ΛΙΘΑΚΙΑΣ,20.830259,37.718703
1618,ΝΗΠΙΑΓΩΓΕΙΟ ΚΑΛΙΠΑΔΟΥ,20.838324,37.802175
1619,ΝΗΠΙΑΓΩΓΕΙΟ ΚΕΡΙΟΥ,20.817242,37.661249
1620,ΝΗΠΙΑΓΩΓΕΙΟ ΠΑΝΤΟΚΡΑΤΟΡΟΣ,20.827836,37.73078
1621,ΝΗΠΙΑΓΩΓΕΙΟ ΣΚΟΥΛΗΚΑΔΟΥ,20.782003,37.799964
1622,ΝΗΠΙΑΓΩΓΕΙΟ ΜΑΧΑΙΡΑΔΟΥ,20.81069,37.757996
1623,ΝΗΠΙΑΓΩΓΕΙΟ ΑΜΠΕΛΟΚΗΠΩΝ,20.869592,37.759678
1624,ΝΗΠΙΑΓΩΓΕΙΟ ΧΑΥΔΑΤΩΝ,20.387616,38.204146
1625,ΝΗΠΙΑΓΩΓΕΙΟ ΑΓΙΑΣ ΘΕΚΛΗΣ,20.383814,38.246766
1626,ΝΗΠΙΑΓΩΓΕΙΟ ΒΑΝΑΤΟΥ,20.851974,37.793912
1627,9ο ΝΗΠΙΑΓΩΓΕΙΟ ΖΑΚΥΝΘΟΥ,,
1628,ΝΗΠΙΑΓΩΓΕΙΟ ΚΑΜΙΝΑΡΑΤΩΝ,,
1629,ΝΗΠΙΑΓΩΓΕΙΟ ΑΓΙΑΣ ΕΙΡΗΝΗΣ,20.753489,38.121511
1630,ΚΕΝΤΡΟ ΠΕΡΙΒΑΛΛΟΝΤΙΚΗΣ ΕΚΠΑΙΔΕΥΣΗΣ ΙΘΑΚΗΣ,,
1631,ΚΕΝΤΡΟ ΠΕΡΙΒΑΛΛΟΝΤΙΚΗΣ ΕΚΠΑΙΔΕΥΣΗΣ ΛΙΘΑΚΙΑΣ ΖΑΚΥΝΘΟΥ,,
1632,ΔΗΜΟΣΙΑ ΒΙΒΛΙΟΘΗΚΗ ΖΑΚΥΝΘΟΥ,,
1633,ΔΗΜΟΣΙΑ ΒΙΒΛΙΟΘΗΚΗ ΛΗΞΟΥΡΙΟΥ,,
1634,ΔΗΜΟΣΙΑ ΒΙΒΛΙΟΘΗΚΗ ΑΡΓΟΣΤΟΛΙΟΥ,,
1635,ΓΕΝΙΚΑ ΑΡΧΕΙΑ ΤΟΥ ΚΡΑΤΟΥΣ-ΤΟΠΙΚΟ ΑΡΧΕΙΟ ΙΘΑΚΗΣ,,
1636,ΓΕΝΙΚΑ ΑΡΧΕΙΑ ΤΟΥ ΚΡΑΤΟΥΣ-ΑΡΧΕΙΑ Ν. ΚΕΦΑΛΛΗΝΙΑΣ,,
1637,ΓΕΝΙΚΑ ΑΡΧΕΙΑ ΤΟΥ ΚΡΑΤΟΥΣ-ΑΡΧΕΙΑ Ν. ΖΑΚΥΝΘΟΥ,,
1638,ΕΙΔΙΚΟ ΕΡΓΑΣΤΗΡΙΟ ΕΠΑΓΓΕΛΜΑΤΙΚΗΣ ΕΚΠΑΙΔΕΥΣΗΣ ΚΑΙ ΚΑΤΑΡΤΙΣΗΣ ΑΡΓΟΣΤΟΛΙΟΥ,,
1639,ΓΡΑΦΕΙΟ ΠΕΡΙΒΑΛΛΟΝΤΙΚΗΣ ΕΚΠΑΙΔΕΥΣΗΣ ΚΕΦΑΛΛΗΝΙΑΣ,,
1640,ΓΡΑΦΕΙΟ ΠΕΡΙΒΑΛΛΟΝΤΙΚΗΣ ΕΚΠΑΙΔΕΥΣΗΣ ΖΑΚΥΝΘΟΥ,,
1641,ΚΕΝΤΡΟ ΔΙΑΓΝΩΣΗΣ ΑΞΙΟΛΟΓΗΣΗΣ ΚΑΙ ΥΠΟΣΤΗΡΙΞΗΣ ΑΤΟΜΩΝ ΜΕ ΕΙΔΙΚΕΣ ΕΚΠΑΙΔΕΥΤΙΚΕΣ ΑΝΑΓΚΕΣ ΖΑΚΥΝΘΟΥ,,
1642,ΚΕΝΤΡΟ ΔΙΑΓΝΩΣΗΣ ΑΞΙΟΛΟΓΗΣΗΣ ΚΑΙ ΥΠΟΣΤΗΡΙΞΗΣ ΑΤΟΜΩΝ ΜΕ ΕΙΔΙΚΕΣ ΕΚΠΑΙΔΕΥΤΙΚΕΣ ΑΝΑΓΚΕΣ ΚΕΦΑΛΛΗΝΙΑΣ,,
1643,ΚΟΜΒΟΣ ΔΙΑΝΟΜΗΣ ΠΣΔ ΝΟΜΟΥ ΚΕΦΑΛΛΗΝΙΑΣ,,
1644,ΚΟΜΒΟΣ ΔΙΑΝΟΜΗΣ ΠΣΔ ΝΟΜΟΥ ΖΑΚΥΝΘΟΥ,,
1645,ΚΕΝΤΡΟ ΕΚΠΑΙΔΕΥΣΗΣ ΕΝΗΛΙΚΩΝ ΚΕΦΑΛΛΗΝΙΑΣ & ΙΘΑΚΗΣ,,
1646,2ο ΓΥΜΝΑΣΙΟ ΚΑΛΑΜΑΤΑΣ,22.124913,37.03464
1647,ΓΥΜΝΑΣΙΟ ΓΑΡΓΑΛΙΑΝΩΝ,21.640851,37.065938
1648,ΓΥΜΝΑΣΙΟ ΚΑΛΑΜΑΤΑΣ ΕΣΠΕΡΙΝΟ,22.122557,37.048237
1649,1ο ΓΥΜΝΑΣΙΟ ΚΑΛΑΜΑΤΑΣ,22.122557,37.048237
1650,ΓΥΜΝΑΣΙΟ ΚΑΡΔΑΜΥΛΗΣ,22.235572,36.889284
1651,ΓΥΜΝΑΣΙΟ ΑΡΕΟΠΟΛΗΣ,22.380763,36.663779
1652,1ο ΓΥΜΝΑΣΙΟ ΓΥΘΕΙΟΥ,22.565904,36.757919
1653,ΓΥΜΝΑΣΙΟ ΣΚΑΛΑΣ ΕΣΠΕΡΙΝΟ,,
1654,1ο ΓΥΜΝΑΣΙΟ ΜΕΣΣΗΝΗΣ,22.011322,37.048653
1655,ΓΥΜΝΑΣΙΟ ΠΑΡΑΛΙΑΣ ΚΑΛΑΜΑΤΑΣ,22.116215,37.025431
1656,2ο ΓΥΜΝΑΣΙΟ ΜΕΣΣΗΝΗΣ,22.011322,37.048653
1657,6ο ΓΥΜΝΑΣΙΟ ΚΑΛΑΜΑΤΑΣ,22.119759,37.047714
1658,5ο ΓΥΜΝΑΣΙΟ ΚΑΛΑΜΑΤΑΣ,22.122557,37.048237
1659,ΓΥΜΝΑΣΙΟ ΠΥΛΟΥ,21.700168,36.912012
1660,ΓΥΜΝΑΣΙΟ ΚΑΜΠΟΥ ΑΒΙΑΣ,22.206092,36.937219
1661,ΓΥΜΝΑΣΙΟ ΜΕΡΟΠΗΣ,22.004136,37.23996
1662,ΓΥΜΝΑΣΙΟ ΠΑΡΑΛΙΑΣ ΤΥΡΟΥ,22.84056,37.24514
1663,2ο ΓΥΜΝΑΣΙΟ ΤΡΙΠΟΛΗΣ,22.384651,37.466886
1664,ΓΥΜΝΑΣΙΟ ΞΗΡΟΚΑΜΠΙΟΥ,22.443374,36.952797
1665,ΓΥΜΝΑΣΙΟ ΜΟΝΕΜΒΑΣΙΑΣ,23.052949,36.684425
1666,ΔΗΜΟΤΙΚΟ ΣΧΟΛΕΙΟ ΧΑΝΔΡΙΝΟΥ ΠΥΛΙΑΣ,21.790767,36.958176
1667,4ο ΓΥΜΝΑΣΙΟ ΣΠΑΡΤΗΣ,22.433405,37.062609
1668,ΓΥΜΝΑΣΙΟ ΝΕΑΠΟΛΗΣ,23.065539,36.508182
1669,3ο ΓΥΜΝΑΣΙΟ ΣΠΑΡΤΗΣ,22.431242,37.057887
1670,ΔΗΜΟΤΙΚΟ ΣΧΟΛΕΙΟ ΑΓΙΟΥ ΝΙΚΟΛΑΟΥ ΜΟΝ,22.967162,36.679063
1671,4ο ΓΥΜΝΑΣΙΟ ΚΑΛΑΜΑΤΑΣ,22.119759,37.047714
1672,ΓΥΜΝΑΣΙΟ ΧΩΡΑΣ ΤΡΙΦΥΛΙΑΣ,21.72403,37.054115
1673,ΓΥΜΝΑΣΙΟ ΜΕΛΙΓΑΛΑ,21.975508,37.224941
1674,ΓΥΜΝΑΣΙΟ ΧΑΤΖΗ ΠΥΛΙΑΣ,21.830121,37.016083
1675,7ο ΓΥΜΝΑΣΙΟ ΚΑΛΑΜΑΤΑΣ,22.122557,37.048237
1676,ΓΥΜΝΑΣΙΟ ΠΕΤΑΛΙΔΙΟΥ,21.921551,36.956441
1677,ΓΥΜΝΑΣΙΟ ΜΕΘΩΝΗΣ,21.706763,36.817998
1678,ΓΥΜΝΑΣΙΟ ΦΙΛΙΑΤΡΩΝ,21.588435,37.15685
1679,ΓΥΜΝΑΣΙΟ ΔΙΑΒΟΛΙΤΣΙΟΥ,21.969721,37.299026
1680,ΓΥΜΝΑΣΙΟ ΚΥΠΑΡΙΣΣΙΑΣ,21.664713,37.249478
1681,ΓΥΜΝΑΣΙΟ ΔΩΡΙΟΥ,21.858213,37.286431
1682,ΓΥΜΝΑΣΙΟ ΚΑΛΑΜΑΤΑΣ ΜΟΥΣΙΚΟ,22.12247,37.025473
1683,ΓΥΜΝΑΣΙΟ ΚΟΠΑΝΑΚΙΟΥ,21.818277,37.287437
1684,ΓΥΜΝΑΣΙΟ ΚΟΡΩΝΗΣ,21.95404,36.792576
1685,ΓΥΜΝΑΣΙΟ ΣΚΑΛΑΣ,22.666744,36.851296
1686,2ο ΓΥΜΝΑΣΙΟ ΣΠΑΡΤΗΣ,22.431917,37.062246
1687,1ο ΓΥΜΝΑΣΙΟ ΣΠΑΡΤΗΣ,22.432597,37.062434
1688,ΓΥΜΝΑΣΙΟ ΣΠΑΡΤΗΣ ΕΣΠΕΡΙΝΟ,22.433405,37.062609
1689,ΓΥΜΝΑΣΙΟ ΚΑΣΤΟΡΕΙΟΥ,22.30878,37.169107
1690,ΓΥΜΝΑΣΙΟ ΜΟΛΑΩΝ,22.853575,36.806691
1691,2ο ΓΥΜΝΑΣΙΟ ΓΥΘΕΙΟΥ,22.565904,36.757919
1692,ΓΥΜΝΑΣΙΟ ΚΡΟΚΕΩΝ,22.550312,36.88421
1693,ΓΥΜΝΑΣΙΟ ΓΕΡΑΚΙΟΥ,22.711889,36.992159
1694,ΓΥΜΝΑΣΙΟ ΒΛΑΧΙΩΤΗ,22.71247,36.861129
1695,ΓΥΜΝΑΣΙΟ ΠΑΠΑΔΙΑΝΙΚΩΝ,22.865202,36.713702
1696,ΓΥΜΝΑΣΙΟ ΑΡΦΑΡΩΝ,22.048085,37.155878
1697,ΔΗΜΟΤΙΚΟ ΣΧΟΛΕΙΟ ΕΛΑΦΟΝΗΣΟΥ ΒΟΙΩΝ ΜΟΛΑΩΝ,22.975394,36.500078
1698,ΓΥΜΝΑΣΙΟ ΛΕΩΝΙΔΙΟΥ,22.861253,37.168327
1699,ΓΥΜΝΑΣΙΟ ΑΓΙΟΥ ΑΝΔΡΕΑ ΚΥΝΟΥΡΙΑΣ,22.767056,37.342886
1700,ΓΥΜΝΑΣΙΟ ΛΕΒΙΔΙΟΥ,22.297757,37.681528
1701,ΓΥΜΝΑΣΙΟ ΑΝΔΡΟΥΣΗΣ,21.945308,37.108153
1702,ΔΗΜΟΤΙΚΟ ΣΧΟΛΕΙΟ ΝΕΑΣ ΚΟΡΩΝΗΣ ΠΥΛΙΑΣ,21.952762,36.792331
1703,ΔΗΜΟΤΙΚΟ ΣΧΟΛΕΙΟ ΕΛΑΙΑΣ,,
1704,ΓΥΜΝΑΣΙΟ ΒΥΤΙΝΑΣ,22.184754,37.670841
1705,ΓΥΜΝΑΣΙΟ ΔΗΜΗΤΣΑΝΑΣ,22.041302,37.595014
1706,ΔΗΜΟΤΙΚΟ ΣΧΟΛΕΙΟ ΚΡΕΜΜΥΔΙΩΝ ΠΥΛΙΑΣ,21.783914,36.993049
1707,ΓΥΜΝΑΣΙΟ ΤΕΓΕΑΣ,22.42293,37.453769
1708,3ο ΓΥΜΝΑΣΙΟ ΤΡΙΠΟΛΗΣ,22.383281,37.466655
1709,3ο ΓΥΜΝΑΣΙΟ ΚΑΛΑΜΑΤΑΣ,22.118327,37.037125
1710,ΓΥΜΝΑΣΙΟ ΤΡΙΠΟΛΗΣ ΠΕΙΡΑΜΑΤΙΚΟ,22.374811,37.467955
1711,ΓΥΜΝΑΣΙΟ ΣΠΑΡΤΗΣ ΜΟΥΣΙΚΟ,22.432961,37.063986
1712,ΓΥΜΝΑΣΙΟ ΝΕΣΤΑΝΗΣ ΜΑΝΤΙΝΕΙΑΣ,22.466477,37.612803
1713,ΔΗΜΟΤΙΚΟ ΣΧΟΛΕΙΟ ΒΛΑΧΟΠΟΥΛΟΥ ΠΥΛΙΑΣ,21.793215,37.031249
1714,ΓΥΜΝΑΣΙΟ ΑΣΤΡΟΥΣ ΑΡΚΑΔΙΑΣ,22.721726,37.404232
1715,1ο ΓΥΜΝΑΣΙΟ ΤΡΙΠΟΛΗΣ,22.366708,37.456266
1716,ΓΥΜΝΑΣΙΟ ΛΟΓΓΑΣ,21.906891,36.869849
1717,ΓΥΜΝΑΣΙΟ ΤΡΙΠΟΛΗΣ ΕΣΠΕΡΙΝΟ,22.383397,37.466664
1718,ΓΥΜΝΑΣΙΟ ΜΕΓΑΛΟΠΟΛΗΣ,22.139071,37.401376
1719,ΓΥΜΝΑΣΙΟ ΒΛΑΧΟΚΕΡΑΣΙΑΣ,22.37882,37.366837
1720,ΓΥΜΝΑΣΙΟ ΘΟΥΡΙΑΣ,22.052387,37.083174
1721,ΓΥΜΝΑΣΙΟ ΤΡΙΠΟΛΗΣ ΜΟΥΣΙΚΟ,,
1722,ΔΗΜΟΤΙΚΟ ΣΧΟΛΕΙΟ ΑΜΥΓΔΑΛΕΑΣ,22.224483,38.417713
1723,ΕΝΙΑΙΟ ΛΥΚΕΙΟ ΚΑΡΔΑΜΥΛΗΣ,22.235572,36.889284
1724,ΕΝΙΑΙΟ ΛΥΚΕΙΟ ΓΕΡΑΚΙΟΥ,22.711889,36.992159
1725,ΕΝΙΑΙΟ ΛΥΚΕΙΟ ΣΠΑΡΤΗΣ ΕΣΠΕΡΙΝΟ,22.433405,37.062609
1726,ΕΝΙΑΙΟ ΛΥΚΕΙΟ ΧΑΤΖΗ ΠΥΛΙΑΣ,21.830121,37.016083
1727,ΕΝΙΑΙΟ ΛΥΚΕΙΟ ΚΑΛΑΜΑΤΑΣ ΜΟΥΣΙΚΟ,22.12247,37.025473
1728,"1ο ΕΝΙΑΙΟ ΛΥΚΕΙΟ ΑΣΤΡΟΥΣ ""ΔΗΜΗΤΡΙΟΣ ΘΕΜ. ΣΑΚΑΛΗΣ""",22.721726,37.404232
1729,1ο ΕΝΙΑΙΟ ΛΥΚΕΙΟ ΤΡΙΠΟΛΗΣ,22.366811,37.456328
1730,ΕΝΙΑΙΟ ΛΥΚΕΙΟ ΚΡΟΚΕΩΝ,22.550312,36.88421
1731,ΕΝΙΑΙΟ ΛΥΚΕΙΟ ΤΕΓΕΑΣ,22.42293,37.453769
1732,3ο ΕΝΙΑΙΟ ΛΥΚΕΙΟ ΤΡΙΠΟΛΗΣ,22.383334,37.466663
1733,ΕΝΙΑΙΟ ΛΥΚΕΙΟ ΤΡΙΠΟΛΗΣ ΕΣΠΕΡΙΝΟ,22.371355,37.472287
1734,4ο ΕΝΙΑΙΟ ΛΥΚΕΙΟ ΤΡΙΠΟΛΗΣ,22.374135,37.468233
1735,ΕΝΙΑΙΟ ΛΥΚΕΙΟ ΠΥΛΟΥ,21.700168,36.912012
1736,2ο ΕΝΙΑΙΟ ΛΥΚΕΙΟ ΜΕΣΣΗΝΗΣ,22.011322,37.048653
1737,ΕΝΙΑΙΟ ΛΥΚΕΙΟ ΑΝΔΡΟΥΣΗΣ,21.945308,37.108153
1738,5ο ΕΝΙΑΙΟ ΛΥΚΕΙΟ ΚΑΛΑΜΑΤΑΣ,22.116748,37.037447
1739,ΕΝΙΑΙΟ ΛΥΚΕΙΟ ΧΩΡΑΣ ΤΡΙΦΥΛΙΑΣ,21.72403,37.054115
1740,1ο ΕΝΙΑΙΟ ΛΥΚΕΙΟ ΜΕΓΑΛΟΠΟΛΗΣ,22.139071,37.401376
1741,ΕΝΙΑΙΟ ΛΥΚΕΙΟ ΛΕΩΝΙΔΙΟΥ,22.861253,37.168327
1742,ΕΝΙΑΙΟ ΛΥΚΕΙΟ ΤΡΟΠΑΙΩΝ,21.957674,37.732196
1743,ΕΝΙΑΙΟ ΛΥΚΕΙΟ ΛΕΒΙΔΙΟΥ,22.297757,37.681528
1744,ΕΝΙΑΙΟ ΛΥΚΕΙΟ ΜΕΘΩΝΗΣ,21.706763,36.817998
1745,2ο ΕΝΙΑΙΟ ΛΥΚΕΙΟ ΣΠΑΡΤΗΣ,22.43083,37.06528
1746,ΕΝΙΑΙΟ ΛΥΚΕΙΟ ΚΑΣΤΟΡΕΙΟΥ,22.30878,37.169107
1747,1ο ΕΝΙΑΙΟ ΛΥΚΕΙΟ ΣΠΑΡΤΗΣ,22.432597,37.062434
1748,ΕΝΙΑΙΟ ΛΥΚΕΙΟ ΑΡΕΟΠΟΛΗΣ,22.380763,36.663779
1749,3ο ΕΝΙΑΙΟ ΛΥΚΕΙΟ ΣΠΑΡΤΗΣ,22.432014,37.057556
1750,2ο ΕΝΙΑΙΟ ΛΥΚΕΙΟ ΚΑΛΑΜΑΤΑΣ,22.122557,37.048237
1751,ΕΝΙΑΙΟ ΛΥΚΕΙΟ ΣΚΑΛΑΣ,22.666744,36.851296
1752,3ο ΕΝΙΑΙΟ ΛΥΚΕΙΟ ΚΑΛΑΜΑΤΑΣ,22.116215,37.025431
1753,ΕΝΙΑΙΟ ΛΥΚΕΙΟ ΓΑΡΓΑΛΙΑΝΩΝ,21.640851,37.065938
1754,ΕΝΙΑΙΟ ΛΥΚΕΙΟ ΚΟΡΩΝΗΣ,21.95404,36.792576
1755,ΕΝΙΑΙΟ ΛΥΚΕΙΟ ΓΥΘΕΙΟΥ,22.565904,36.757919
1756,4ο ΕΝΙΑΙΟ ΛΥΚΕΙΟ ΚΑΛΑΜΑΤΑΣ,22.119759,37.047714
1757,ΕΝΙΑΙΟ ΛΥΚΕΙΟ ΠΕΤΑΛΙΔΙΟΥ,21.921551,36.956441
1758,6ο ΕΝΙΑΙΟ ΛΥΚΕΙΟ ΚΑΛΑΜΑΤΑΣ,22.124841,37.043189
1759,ΔΗΜΟΤΙΚΟ ΣΧΟΛΕΙΟ ΠΕΝΤΑΠΟΛΗΣ,22.212878,38.489931
1760,ΔΗΜΟΤΙΚΟ ΣΧΟΛΕΙΟ ΜΑΛΑΝΔΡΙΝΟΥ,22.236858,38.454895
1761,ΕΝΙΑΙΟ ΛΥΚΕΙΟ ΕΛΟΥΣ,22.699466,36.831916
1762,ΕΝΙΑΙΟ ΛΥΚΕΙΟ ΘΟΥΡΙΑΣ,22.052387,37.083174
1763,1ο ΕΝΙΑΙΟ ΛΥΚΕΙΟ ΜΕΣΣΗΝΗΣ,22.011322,37.048653
1764,ΕΝΙΑΙΟ ΛΥΚΕΙΟ ΦΙΛΙΑΤΡΩΝ,21.588435,37.15685
1765,ΕΝΙΑΙΟ ΛΥΚΕΙΟ ΚΑΛΑΜΑΤΑΣ ΕΣΠΕΡΙΝΟ,22.122557,37.048237
1766,2ο ΕΝΙΑΙΟ ΛΥΚΕΙΟ ΤΡΙΠΟΛΗΣ,22.38482,37.466882
1767,ΕΝΙΑΙΟ ΛΥΚΕΙΟ ΞΗΡΟΚΑΜΠΙΟΥ,22.443374,36.952797
1768,ΕΝΙΑΙΟ ΛΥΚΕΙΟ ΔΙΑΒΟΛΙΤΣΙΟΥ,21.969721,37.299026
1769,ΔΗΜΟΤΙΚΟ ΣΧΟΛΕΙΟ ΔΑΦΝΗΣ ΓΙΑΝΝΙΤΣΩΝ,22.235826,40.770016
1770,ΕΝΙΑΙΟ ΛΥΚΕΙΟ ΝΕΑΠΟΛΗΣ,23.065539,36.508182
1771,ΕΝΙΑΙΟ ΛΥΚΕΙΟ ΑΡΦΑΡΩΝ,22.048085,37.155878
1772,ΕΝΙΑΙΟ ΛΥΚΕΙΟ ΜΟΛΑΩΝ,22.853575,36.806691
1773,ΕΝΙΑΙΟ ΛΥΚΕΙΟ ΜΟΝΕΜΒΑΣΙΑΣ,23.052949,36.684425
1774,ΕΝΙΑΙΟ ΛΥΚΕΙΟ ΚΥΠΑΡΙΣΣΙΑΣ,21.664713,37.249478
1775,1ο ΕΝΙΑΙΟ ΛΥΚΕΙΟ ΚΑΛΑΜΑΤΑΣ,22.122557,37.048237
1776,2ο ΤΕΕ ΤΡΙΠΟΛΗΣ,22.379481,37.455571
1777,1ο ΤΕΕ ΜΕΓΑΛΟΠΟΛΗΣ,22.139071,37.401376
1778,4ο ΤΕΕ ΚΑΛΑΜΑΤΑΣ,22.122557,37.048237
1779,1ο ΤΕΕ ΜΟΛΑΩΝ,22.853575,36.806691
1780,3ο ΤΕΕ ΚΑΛΑΜΑΤΑΣ,22.116215,37.025431
1781,2ο ΤΕΕ ΚΥΠΑΡΙΣΣΙΑΣ,21.664713,37.249478
1782,2ο ΤΕΕ ΣΠΑΡΤΗΣ,22.431812,37.062543
1783,1ο ΤΕΕ ΑΣΤΡΟΥΣ,22.721726,37.404232
1784,ΤΕΕ ΛΕΩΝΙΔΙΟΥ,22.861253,37.168327
1785,1ο ΤΕΕ ΤΡΙΠΟΛΗΣ,22.379325,37.455611
1786,1ο ΤΕΕ ΒΟΙΩΝ,,
1787,ΤΕΕ ΜΕΣΣΗΝΗΣ,22.011322,37.048653
1788,1ο ΤΕΕ ΣΠΑΡΤΗΣ,22.431812,37.062543
1789,ΤΕΕ ΓΥΘΕΙΟΥ,,
1790,2ο ΤΕΕ ΚΑΛΑΜΑΤΑΣ,22.116215,37.025431
1791,1ο ΤΕΕ ΚΑΛΑΜΑΤΑΣ,22.116215,37.025431
1792,1ο ΤΕΕ ΣΤΕΜΝΙΤΣΑΣ,22.083771,37.554716
1793,2ο ΤΕΕ ΜΕΓΑΛΟΠΟΛΗΣ,22.139071,37.401376
1794,1ο ΤΕΕ ΚΥΠΑΡΙΣΣΙΑΣ,21.664713,37.249478
1795,ΤΕΕ ΕΛΟΥΣ,22.778542,36.825865
1796,3ο ΤΕΕ ΤΡΙΠΟΛΗΣ ΕΣΠΕΡΙΝΟ,,
1797,1ο ΣΕΚ ΜΕΣΣΗΝΙΑΣ (ΚΑΛΑΜΑΤΑΣ),22.116215,37.025431
1798,1ο ΣΕΚ ΣΠΑΡΤΗΣ,22.432014,37.057556
1799,2ο ΣΕΚ ΜΕΣΣΗΝΙΑΣ (ΚΥΠΑΡΙΣΣΙΑΣ),21.664713,37.249478
1800,1ο ΣΕΚ ΤΡΙΠΟΛΗΣ,22.379689,37.455524
1801,ΔΗΜΟΤΙΚΟ ΣΧΟΛΕΙΟ ΦΛΑΜΟΥΡΙΑΣ,22.017325,40.750451
1802,8ο ΔΗΜΟΤΙΚΟ ΣΧΟΛΕΙΟ ΤΡΙΠΟΛΗΣ,,
1803,9ο ΔΗΜΟΤΙΚΟ ΣΧΟΛΕΙΟ ΤΡΙΠΟΛΗΣ,,
1804,7ο ΔΗΜΟΤΙΚΟ ΣΧΟΛΕΙΟ ΤΡΙΠΟΛΗΣ,,
1805,10ο ΔΗΜΟΤΙΚΟ ΣΧΟΛΕΙΟ ΤΡΙΠΟΛΗΣ,,
1806,ΔΗΜΟΤΙΚΟ ΣΧΟΛΕΙΟ ΤΡΙΠΟΛΗΣ ΠΕΙΡΑΜΑΤΙΚΟ ΠΑΙΔ.ΑΚΑΔΗΜΙΑΣ,,
1807,ΔΗΜΟΤΙΚΟ ΣΧΟΛΕΙΟ ΤΥΡΟΣΑΠΟΥΝΑΚΕΙΚΩΝ,22.855768,37.240596
1808,3ο ΔΗΜΟΤΙΚΟ ΣΧΟΛΕΙΟ ΜΕΓΑΛΟΠΟΛΗΣ,22.138176,37.400948
1809,ΔΗΜΟΤΙΚΟ ΣΧΟΛΕΙΟ ΚΑΣΤΑΝΙΑΣ,,
1810,ΔΗΜΟΤΙΚΟ ΣΧΟΛΕΙΟ ΛΕΪΚΩΝ,22.099109,37.062116
1811,5ο ΔΗΜΟΤΙΚΟ ΣΧΟΛΕΙΟ ΚΑΛΑΜΑΤΑΣ,,
1812,9ο ΔΗΜΟΤΙΚΟ ΣΧΟΛΕΙΟ ΚΑΛΑΜΑΤΑΣ,,
1813,ΔΗΜΟΤΙΚΟ ΣΧΟΛΕΙΟ ΜΕΛΙΓΑΛΑ,21.975047,37.22489
1814,8ο ΔΗΜΟΤΙΚΟ ΣΧΟΛΕΙΟ ΚΑΛΑΜΑΤΑΣ,22.107138,37.027483
1815,ΔΗΜΟΤΙΚΟ ΣΧΟΛΕΙΟ ΣΠΗΛΙΑΣ,21.64173,37.210405
1816,26ο ΔΗΜΟΤΙΚΟ ΣΧΟΛΕΙΟ ΚΑΛΑΜΑΤΑΣ,22.114997,37.024766
1817,1ο ΔΗΜΟΤΙΚΟ ΣΧΟΛΕΙΟ ΔΥΤΙΚΗΣ ΜΑΝΗΣ,,
1818,1ο ΔΗΜΟΤΙΚΟ ΣΧΟΛΕΙΟ ΠΥΛΟΥ,21.699745,36.910391
1819,1ο ΔΗΜΟΤΙΚΟ ΣΧΟΛΕΙΟ ΚΑΛΑΜΑΤΑΣ ΕΙΔΙΚΟ,22.113679,37.040354
1820,6ο ΔΗΜΟΤΙΚΟ ΣΧΟΛΕΙΟ ΚΑΛΑΜΑΤΑΣ,,
1821,3ο ΔΗΜΟΤΙΚΟ ΣΧΟΛΕΙΟ ΚΑΛΑΜΑΤΑΣ,22.114937,37.024312
1822,4ο ΔΗΜΟΤΙΚΟ ΣΧΟΛΕΙΟ ΚΑΛΑΜΑΤΑΣ,22.111866,37.029794
1823,ΔΗΜΟΤΙΚΟ ΣΧΟΛΕΙΟ ΖΕΥΓΟΛΑΤΕΙΟΥ ΜΕΣΣΗΝΗΣ,21.968749,37.250157
1824,ΔΗΜΟΤΙΚΟ ΣΧΟΛΕΙΟ ΑΝΔΡΟΥΣΑΣ,,
1825,ΔΗΜΟΤΙΚΟ ΣΧΟΛΕΙΟ ΧΡΥΣΟΚΕΛΛΑΡΙΑΣ ΠΥΛΙΑΣ,21.887293,36.790129
1826,ΔΗΜΟΤΙΚΟ ΣΧΟΛΕΙΟ ΑΓΚΙΣΤΡΟΥ ΣΙΝΤΙΚΗΣ,23.445229,41.374387
1827,ΔΗΜΟΤΙΚΟ ΣΧΟΛΕΙΟ ΧΑΡΟΚΟΠΕΙΟΥ ΠΥΛΙΑΣ,21.918669,36.809587
1828,18ο ΔΗΜΟΤΙΚΟ ΣΧΟΛΕΙΟ ΚΑΛΑΜΑΤΑΣ,,
1829,17ο ΔΗΜΟΤΙΚΟ ΣΧΟΛΕΙΟ ΚΑΛΑΜΑΤΑΣ,22.127835,37.044194
1830,16ο ΔΗΜΟΤΙΚΟ ΣΧΟΛΕΙΟ ΚΑΛΑΜΑΤΑΣ,,
1831,12ο ΔΗΜΟΤΙΚΟ ΣΧΟΛΕΙΟ ΚΑΛΑΜΑΤΑΣ,,
1832,1ο ΔΗΜΟΤΙΚΟ ΣΧΟΛΕΙΟ ΚΑΛΑΜΑΤΑΣ,,
1833,22ο ΔΗΜΟΤΙΚΟ ΣΧΟΛΕΙΟ ΚΑΛΑΜΑΤΑΣ,,
1834,2ο ΔΗΜΟΤΙΚΟ ΣΧΟΛΕΙΟ ΚΑΛΑΜΑΤΑΣ,22.114534,37.025141
1835,14ο ΔΗΜΟΤΙΚΟ ΣΧΟΛΕΙΟ ΚΑΛΑΜΑΤΑΣ,,
1836,13ο ΔΗΜΟΤΙΚΟ ΣΧΟΛΕΙΟ ΚΑΛΑΜΑΤΑΣ,22.107099,37.044769
1837,11ο ΔΗΜΟΤΙΚΟ ΣΧΟΛΕΙΟ ΚΑΛΑΜΑΤΑΣ,22.105673,37.030126
1838,ΔΗΜΟΤΙΚΟ ΣΧΟΛΕΙΟ ΠΑΡΑΛΙΑΣ ΒΕΡΓΑΣ,22.158274,37.006708
1839,ΔΗΜΟΤΙΚΟ ΣΧΟΛΕΙΟ ΑΝΑΛΗΨΗΣ ΜΕΣΣΗΝΗΣ,,
1840,24ο ΔΗΜΟΤΙΚΟ ΣΧΟΛΕΙΟ ΚΑΛΑΜΑΤΑΣ,22.109057,37.030744
1841,ΔΗΜΟΤΙΚΟ ΣΧΟΛΕΙΟ ΑΡΙΟΣ,,
1842,ΔΗΜΟΤΙΚΟ ΣΧΟΛΕΙΟ ΑΙΘΑΙΑΣ,22.047622,37.094187
1843,ΔΗΜΟΤΙΚΟ ΣΧΟΛΕΙΟ ΑΡΦΑΡΩΝ,22.046238,37.155898
1844,ΔΗΜΟΤΙΚΟ ΣΧΟΛΕΙΟ ΚΑΤΩ ΑΜΦΕΙΑΣ,22.071972,37.107268
1845,ΔΗΜΟΤΙΚΟ ΣΧΟΛΕΙΟ ΑΝΩ ΑΜΦΕΙΑΣ,22.039161,37.11288
1846,ΔΗΜΟΤΙΚΟ ΣΧΟΛΕΙΟ ΣΠΕΡΧΟΓΕΙΑΣ,22.06448,37.074508
1847,ΔΗΜΟΤΙΚΟ ΣΧΟΛΕΙΟ ΠΛΑΤΕΟΣ,22.011174,37.140281
1848,7ο ΔΗΜΟΤΙΚΟ ΣΧΟΛΕΙΟ ΚΑΛΑΜΑΤΑΣ,22.114969,37.025134
1849,ΔΗΜΟΤΙΚΟ ΣΧΟΛΕΙΟ ΣΤΑΔΙΟΥ ΜΑΝΤΙΝΕΙΑΣ,22.437441,37.456274
1850,2ο ΔΗΜΟΤΙΚΟ ΣΧΟΛΕΙΟ ΣΠΑΡΤΗΣ,22.43183,37.062522
1851,ΔΗΜΟΤΙΚΟ ΣΧΟΛΕΙΟ ΚΑΠΝΟΦΥΤΟΥ ΣΙΝΤΙΚΗΣ,23.502931,41.289499
1852,ΔΗΜΟΤΙΚΟ ΣΧΟΛΕΙΟ ΑΒΡΑΜΙΟΥ,21.941438,37.033603
1853,1ο ΔΗΜΟΤΙΚΟ ΣΧΟΛΕΙΟ ΜΕΣΣΗΝΗΣ,22.009859,37.048682
1854,10ο ΔΗΜΟΤΙΚΟ ΣΧΟΛΕΙΟ ΚΑΛΑΜΑΤΑΣ,22.122502,37.02438
1855,ΔΗΜΟΤΙΚΟ ΣΧΟΛΕΙΟ ΑΧΛΑΔΟΧΩΡΙΟΥ ΣΙΝΤΙΚΗΣ,23.544848,41.318815
1856,4ο ΔΗΜΟΤΙΚΟ ΣΧΟΛΕΙΟ ΜΕΣΣΗΝΗΣ,22.009854,37.048674
1857,2ο ΔΗΜΟΤΙΚΟ ΣΧΟΛΕΙΟ ΜΕΣΣΗΝΗΣ,22.009859,37.048681
1858,ΔΗΜΟΤΙΚΟ ΣΧΟΛΕΙΟ ΤΡΙΦΥΛΛΙΟΥ ΓΙΑΝΝΙΤΣΩΝ,22.263935,40.790422
1859,ΔΗΜΟΤΙΚΟ ΣΧΟΛΕΙΟ ΚΑΝΔΗΛΑΣ ΜΑΝΤΙΝΕΙΑΣ,22.381086,37.773437
1860,ΔΗΜΟΤΙΚΟ ΣΧΟΛΕΙΟ ΚΑΛΛΙΠΟΛΗΣ ΓΙΑΝΝΙΤΣΩΝ,22.234874,40.789063
1861,5ο ΔΗΜΟΤΙΚΟ ΣΧΟΛΕΙΟ ΤΡΙΠΟΛΗΣ,,
1862,ΔΗΜΟΤΙΚΟ ΣΧΟΛΕΙΟ ΔΑΡΑ ΜΑΝΤΙΝΕΙΑΣ,22.201148,37.806164
1863,3ο ΔΗΜΟΤΙΚΟ ΣΧΟΛΕΙΟ ΜΕΣΣΗΝΗΣ,22.009862,37.048673
1864,ΔΗΜΟΤΙΚΟ ΣΧΟΛΕΙΟ ΠΡΟΑΣΤΙΟΥ,22.255396,36.876366
1865,ΔΗΜΟΤΙΚΟ ΣΧΟΛΕΙΟ ΝΕΣΤΑΝΗ ΜΑΝΤΙΝΕΙΑΣ,22.465315,37.611786
1866,ΔΗΜΟΤΙΚΟ ΣΧΟΛΕΙΟ ΚΑΛΟΓΩΝΙΑΣ ΛΑΚΕΔΑΙΜΟΝΟΣ,,
1867,ΔΗΜΟΤΙΚΟ ΣΧΟΛΕΙΟ ΛΕΠΤΟΚΑΡΥΑΣ,,
1868,ΔΗΜΟΤΙΚΟ ΣΧΟΛΕΙΟ ΑΡΣΕΝΙΟΥ,22.164918,40.71279
1869,ΔΗΜΟΤΙΚΟ ΣΧΟΛΕΙΟ ΞΙΦΙΑΝΗΣ,22.081907,40.929839
1870,1ο ΔΗΜΟΤΙΚΟ ΣΧΟΛΕΙΟ ΤΡΙΠΟΛΗΣ,,
1871,ΔΗΜΟΤΙΚΟ ΣΧΟΛΕΙΟ ΚΥΡΙΑΚΙΟΥ ΛΙΒΑΔΕΙΑΣ,22.791901,38.350663
1872,2ο ΔΗΜΟΤΙΚΟ ΣΧΟΛΕΙΟ ΜΕΓΑΛΟΠΟΛΗΣ,22.138176,37.400949
1873,ΔΗΜΟΤΙΚΟ ΣΧΟΛΕΙΟ ΤΟΡΩΝΗΣ,,
1874,1ο ΔΗΜΟΤΙΚΟ ΣΧΟΛΕΙΟ ΜΕΓΑΛΟΠΟΛΗΣ,22.138176,37.400948
1875,2ο ΔΗΜΟΤΙΚΟ ΣΧΟΛΕΙΟ ΣΚΑΛΑΣ,,
1876,6ο ΔΗΜΟΤΙΚΟ ΣΧΟΛΕΙΟ ΤΡΙΠΟΛΗΣ,,
1877,ΔΗΜΟΤΙΚΟ ΣΧΟΛΕΙΟ ΓΟΜΑΤΙΟΥ,23.795805,40.394775
1878,ΔΗΜΟΤΙΚΟ ΣΧΟΛΕΙΟ ΒΥΤΙΝΑΣ ΓΟΡΤΥΝΙΑΣ,22.183684,37.669659
1879,ΔΗΜΟΤΙΚΟ ΣΧΟΛΕΙΟ ΜΕΤΑΓΚΙΤΣΙΟΥ,23.653168,40.322534
1880,ΔΗΜΟΤΙΚΟ ΣΧΟΛΕΙΟ ΕΛΑΙΟΧΩΡΙΟΥ ΜΑΝΤΙΝΕΙΑΣ,22.574003,37.455323
1881,ΔΗΜΟΤΙΚΟ ΣΧΟΛΕΙΟ ΠΛΑΝΑΣ,,
1882,3ο ΔΗΜΟΤΙΚΟ ΣΧΟΛΕΙΟ ΣΠΑΡΤΗΣ,22.431029,37.062278
1883,ΔΗΜΟΤΙΚΟ ΣΧΟΛΕΙΟ ΟΥΡΑΝΟΥΠΟΛΗΣ,23.979166,40.330607
1884,ΔΗΜΟΤΙΚΟ ΣΧΟΛΕΙΟ ΛΟΥΚΑ ΜΑΝΤΙΝΕΙΑΣ,22.460578,37.563472
1885,ΔΗΜΟΤΙΚΟ ΣΧΟΛΕΙΟ ΕΘΝΙΚΟΥ ΦΛΩΡΙΝΑΣ,21.356785,40.869773
1886,ΔΗΜΟΤΙΚΟ ΣΧΟΛΕΙΟ ΔΡΟΣΟΠΗΓΗΣ ΦΛΩΡΙΝΑΣ,21.454147,40.688171
1887,ΔΗΜΟΤΙΚΟ ΣΧΟΛΕΙΟ ΚΡΑΤΕΡΟΥ ΦΛΩΡΙΝΑΣ,21.312487,40.855301
1888,ΔΗΜΟΤΙΚΟ ΣΧΟΛΕΙΟ ΞΙΝΟΥ ΝΕΡΟΥ ΑΜΥΝΤΑΙΟΥ,21.62267,40.689448
1889,ΔΗΜΟΤΙΚΟ ΣΧΟΛΕΙΟ ΡΙΖΩΝ ΜΑΝΤΙΝΕΙΑΣ,22.468477,37.449218
1890,ΔΗΜΟΤΙΚΟ ΣΧΟΛΕΙΟ ΠΑΛΛΑΝΤΙΟΥ ΜΑΝΤΙΝΕΙΑΣ,22.361285,37.457621
1891,4ο ΔΗΜΟΤΙΚΟ ΣΧΟΛΕΙΟ ΤΡΙΠΟΛΗΣ,,
1892,3ο ΔΗΜΟΤΙΚΟ ΣΧΟΛΕΙΟ ΤΡΙΠΟΛΗΣ,,
1893,ΔΗΜΟΤΙΚΟ ΣΧΟΛΕΙΟ ΠΑΠΑΡΗ ΜΕΓΑΛΟΠΟΛΗΣ,22.261527,37.363262
1894,ΔΗΜΟΤΙΚΟ ΣΧΟΛΕΙΟ ΛΕΒΙΔΙΟΥ ΜΑΝΤΙΝΕΙΑΣ,22.297293,37.68122
1895,2ο ΔΗΜΟΤΙΚΟ ΣΧΟΛΕΙΟ ΤΡΙΠΟΛΗΣ,,
1896,ΔΗΜΟΤΙΚΟ ΣΧΟΛΕΙΟ ΠΕΔΙΝΟΥ ΑΜΥΝΤΑΙΟΥ,,
1897,ΔΗΜΟΤΙΚΟ ΣΧΟΛΕΙΟ ΑΜΥΚΛΩΝ ΛΑΚΕΔΑΙΜΟΝΟΣ,22.43844,37.024802
1898,ΔΗΜΟΤΙΚΟ ΣΧΟΛΕΙΟ ΣΤΑΥΡΟΠΗΓΙΟΥ,22.194206,36.933708
1899,ΔΗΜΟΤΙΚΟ ΣΧΟΛΕΙΟ ΛΕΩΝΙΔΙΟΥ ΕΙΔΙΚΟ,,
1900,ΔΗΜΟΤΙΚΟ ΣΧΟΛΕΙΟ ΔΙΑΒΟΛΙΤΣΙΟΥ,21.969104,37.298755
1901,19ο ΔΗΜΟΤΙΚΟ ΣΧΟΛΕΙΟ ΚΑΛΑΜΑΤΑΣ,22.111854,37.029965
1902,ΔΗΜΟΤΙΚΟ ΣΧΟΛΕΙΟ ΜΥΡΣΙΝΗΣ,,
1903,ΔΗΜΟΤΙΚΟ ΣΧΟΛΕΙΟ ΕΥΑΣ,,
1904,ΔΗΜΟΤΙΚΟ ΣΧΟΛΕΙΟ ΛΕΩΝΙΔΙΟΥ ΚΥΝΟΥΡΙΑΣ,22.860734,37.167442
1905,ΔΗΜΟΤΙΚΟ ΣΧΟΛΕΙΟ ΣΚΟΠΟΥ ΦΛΩΡΙΝΑΣ,21.643159,40.865859
1906,ΔΗΜΟΤΙΚΟ ΣΧΟΛΕΙΟ ΚΟΡΑΚΟΒΟΥΝΙΟΥ ΚΥΝΟΥΡΙΑΣ,22.746512,37.348846
1907,ΔΗΜΟΤΙΚΟ ΣΧΟΛΕΙΟ ΔΟΛΙΑΝΩΝ ΚΥΝΟΥΡΙΑΣ,,
1908,ΔΗΜΟΤΙΚΟ ΣΧΟΛΕΙΟ ΒΟΥΡΒΟΥΡΩΝ ΚΥΝΟΥΡΙΑΣ,22.491528,37.33507
1909,ΔΗΜΟΤΙΚΟ ΣΧΟΛΕΙΟ ΒΕΡΒΕΝΩΝ ΚΥΝΟΥΡΙΑΣ,22.464711,37.369998
1910,ΔΗΜΟΤΙΚΟ ΣΧΟΛΕΙΟ ΑΣΤΡΟΥΣ ΚΥΝΟΥΡΙΑΣ,22.721756,37.404697
1911,ΔΗΜΟΤΙΚΟ ΣΧΟΛΕΙΟ ΠΕΤΡΩΝ ΑΜΥΝΤΑΙΟΥ,21.672749,40.726265
1912,ΔΗΜΟΤΙΚΟ ΣΧΟΛΕΙΟ ΑΓΙΟΥ ΑΝΔΡΕΑ ΚΥΝΟΥΡΙΑΣ,22.767415,37.342705
1913,ΔΗΜΟΤΙΚΟ ΣΧΟΛΕΙΟ ΚΑΣΤΡΙΟΥ ΚΥΝΟΥΡΙΑΣ,22.542127,37.359714
1914,ΔΗΜΟΤΙΚΟ ΣΧΟΛΕΙΟ ΑΓΙΟΥ ΠΑΝΤΕΛΕΗΜΟΝΑ,21.747524,40.725114
1915,ΔΗΜΟΤΙΚΟ ΣΧΟΛΕΙΟ ΜΕΛΙΓΟΥΣ ΚΥΝΟΥΡΙΑΣ,,
1916,11ο ΔΗΜΟΤΙΚΟ ΣΧΟΛΕΙΟ ΤΡΙΠΟΛΗΣ,,
1917,ΔΗΜΟΤΙΚΟ ΣΧΟΛΕΙΟ ΤΡΙΠΟΛΗΣ ΠΕΙΡΑΜΑΤΙΚΟ,,
1918,ΔΗΜΟΤΙΚΟ ΣΧΟΛΕΙΟ ΑΧΛΑΔΑΣ ΦΛΩΡΙΝΑΣ,21.605647,40.857554
1919,ΔΗΜΟΤΙΚΟ ΣΧΟΛΕΙΟ ΠΑΡ ΑΣΤΡΟΥΣ ΚΥΝΟΥΡΙΑΣ,22.765236,37.414301
1920,ΔΗΜΟΤΙΚΟ ΣΧΟΛΕΙΟ ΜΗΛΙΤΣΗΣ,21.330987,40.452336
1921,4ο ΔΗΜΟΤΙΚΟ ΣΧΟΛΕΙΟ ΜΕΓΑΛΟΠΟΛΗΣ,22.138176,37.400949
1922,1ο ΔΗΜΟΤΙΚΟ ΣΧΟΛΕΙΟ ΓΥΘΕΙΟΥ,22.565405,36.758088
1923,2ο ΔΗΜΟΤΙΚΟ ΣΧΟΛΕΙΟ ΓΥΘΕΙΟΥ,22.565404,36.758087
1924,2ο ΔΗΜΟΤΙΚΟ ΣΧΟΛΕΙΟ ΧΩΡΑΣ ΠΥΛΙΑΣ,21.723194,37.053028
1925,ΔΗΜΟΤΙΚΟ ΣΧΟΛΕΙΟ ΚΟΝΑΚΙΩΝ,,
1926,ΔΗΜΟΤΙΚΟ ΣΧΟΛΕΙΟ ΚΑΡΒΕΛΑ,22.477571,36.731136
1927,ΔΗΜΟΤΙΚΟ ΣΧΟΛΕΙΟ ΑΓΙΟΥ ΙΩΑΝΝΟΥ ΛΑΚΕΔΑΙΜΟΝΟΣ,22.409554,37.045593
1928,ΔΗΜΟΤΙΚΟ ΣΧΟΛΕΙΟ ΚΛΑΔΑ ΛΑΚΕΔΑΙΜΟΝΟΣ,22.42825,37.106566
1929,ΔΗΜΟΤΙΚΟ ΣΧΟΛΕΙΟ ΓΙΑΝΝΑΚΟΧΩΡΙΟΥ,22.057493,40.671075
1930,ΔΗΜΟΤΙΚΟ ΣΧΟΛΕΙΟ ΛΕΥΚΟΧΩΜΑΤΟΣ ΛΑΚΕΔΑΙΜΟΝΟΣ,22.515955,36.978135
1931,ΔΗΜΟΤΙΚΟ ΣΧΟΛΕΙΟ ΚΑΣΤΟΡΕΙΟΥ ΛΑΚΕΔΑΙΜΟΝΟΣ,22.307603,37.169172
1932,ΔΗΜΟΤΙΚΟ ΣΧΟΛΕΙΟ ΚΟΚΚΙΝΟΡΡΑΧΗΣ ΛΑΚΕΔΑΙΜΟΝΟ,,
1933,1ο ΔΗΜΟΤΙΚΟ ΣΧΟΛΕΙΟ ΣΠΑΡΤΗΣ,,
1934,ΔΗΜΟΤΙΚΟ ΣΧΟΛΕΙΟ ΣΚΟΥΤΑΡΙΟΥ,22.496146,36.669419
1935,ΔΗΜΟΤΙΚΟ ΣΧΟΛΕΙΟ ΞΗΡΟΚΑΜΠΙΟΥ ΛΑΚΕΔΑΙΜΟΝΟΣ,22.452987,36.956682
1936,ΔΗΜΟΤΙΚΟ ΣΧΟΛΕΙΟ ΜΟΛΑΩΝ,22.85318,36.806567
1937,ΔΗΜΟΤΙΚΟ ΣΧΟΛΕΙΟ ΚΑΛΟΧΩΡΙΟΥ ΝΕΣΤΟΡΙΟ,21.13547,40.484895
1938,ΔΗΜΟΤΙΚΟ ΣΧΟΛΕΙΟ ΑΡΝΗΣ ΛΑΚΩΝΙΚΗΣ,,
1939,ΔΗΜΟΤΙΚΟ ΣΧΟΛΕΙΟ ΚΩΣΤΑΡΑΖΙΟΥ,21.365001,40.448009
1940,ΔΗΜΟΤΙΚΟ ΣΧΟΛΕΙΟ ΚΑΜΠΟΥ ΜΟΛΑΩΝ,,
1941,ΔΗΜΟΤΙΚΟ ΣΧΟΛΕΙΟ ΜΕΛΙΤΙΝΗΣ,22.46248,36.854906
1942,ΔΗΜΟΤΙΚΟ ΣΧΟΛΕΙΟ ΒΛΑΧΟΚΕΡΑΣΙΑΣ ΜΑΝΤΙΝΕΙΑΣ,22.377614,37.366076
1943,ΔΗΜΟΤΙΚΟ ΣΧΟΛΕΙΟ ΑΡΤΕΜΙΣΙΟΥ ΜΑΝΤΙΝΕΙΑΣ,22.378478,37.673105
1944,12ο ΔΗΜΟΤΙΚΟ ΣΧΟΛΕΙΟ ΤΡΙΠΟΛΗΣ,,
1945,ΔΗΜΟΤΙΚΟ ΣΧΟΛΕΙΟ ΝΕΑΠΟΛΗΣ ΒΟΙΩΝ ΜΟΛΑΩΝ,23.064695,36.507128
1946,ΔΗΜΟΤΙΚΟ ΣΧΟΛΕΙΟ ΜΟΝΕΜΒΑΣΙΑΣ ΜΟΛΑΩΝ,23.04748,36.684564
1947,ΔΗΜΟΤΙΚΟ ΣΧΟΛΕΙΟ ΜΥΡΤΕΑΣ ΜΟΛΑΩΝ,22.694389,36.88054
1948,ΔΗΜΟΤΙΚΟ ΣΧΟΛΕΙΟ ΑΡΕΟΠΟΛΗΣ,22.382205,36.661953
1949,ΔΗΜΟΤΙΚΟ ΣΧΟΛΕΙΟ ΤΟΙΧΙΟΥ ΚΑΣΤΟΡΙΑΣ,21.305021,40.582171
1950,ΔΗΜΟΤΙΚΟ ΣΧΟΛΕΙΟ ΠΟΛΥΚΑΡΠΗΣ,21.324068,40.52073
1951,ΔΗΜΟΤΙΚΟ ΣΧΟΛΕΙΟ ΑΜΠΕΛΟΚΗΠΩΝ,21.310975,40.463672
1952,ΔΗΜΟΤΙΚΟ ΣΧΟΛΕΙΟ ΑΓΙΟΥ ΔΗΜΗΤΡΙΟΥ,22.822905,36.933164
1953,ΔΗΜΟΤΙΚΟ ΣΧΟΛΕΙΟ ΠΛΑΤΑΝΑΣ ΛΑΚΕΔΑΙΜΟΝΟΣ,22.47827,37.031186
1954,ΔΗΜΟΤΙΚΟ ΣΧΟΛΕΙΟ ΘΕΟΛΟΓΟΥ ΛΑΚΕΔΑΙΜΟΝΟΣ,22.450989,37.140591
1955,ΔΗΜΟΤΙΚΟ ΣΧΟΛΕΙΟ ΑΓΙΑΣ ΠΑΡΑΣΚΕΥΗΣ ΦΛΩΡΙΝΑΣ,21.381129,40.877351
1956,ΔΗΜΟΤΙΚΟ ΣΧΟΛΕΙΟ ΚΑΛΥΒΙΩΝ ΣΟΧΑΣ ΛΑΚΕΔΑΙΜΟΝΟ,22.421221,37.013426
1957,ΔΗΜΟΤΙΚΟ ΣΧΟΛΕΙΟ ΑΓΙΩΡΓΙΤΙΚΩΝ ΜΑΝΤΙΝΕΙΑΣ,22.484447,37.496614
1958,ΔΗΜΟΤΙΚΟ ΣΧΟΛΕΙΟ ΠΕΛΛΑΝΑΣ,22.3227,37.204747
1959,ΔΗΜΟΤΙΚΟ ΣΧΟΛΕΙΟ ΜΥΣΤΡΑ ΛΑΚΕΔΑΙΜΟΝΟΣ,22.377204,37.069282
1960,ΔΗΜΟΤΙΚΟ ΣΧΟΛΕΙΟ ΜΑΓΟΥΛΑΣ ΛΑΚΕΔΑΙΜΟΝΟΣ,22.410172,37.078645
1961,1ο ΔΗΜΟΤΙΚΟ ΣΧΟΛΕΙΟ ΣΚΑΛΑΣ,,
1962,ΔΗΜΟΤΙΚΟ ΣΧΟΛΕΙΟ ΑΦΙΣΙΟΥ ΛΑΚΕΔΑΙΜΟΝΟΣ,22.451082,37.089239
1963,ΔΗΜΟΤΙΚΟ ΣΧΟΛΕΙΟ ΑΚΡΙΤΑ ΦΛΩΡΙΝΑΣ,21.303066,40.813535
1964,ΔΗΜΟΤΙΚΟ ΣΧΟΛΕΙΟ ΑΓΓΕΛΩΝΑΣ ΜΟΛΑΩΝ,22.971037,36.748354
1965,ΔΗΜΟΤΙΚΟ ΣΧΟΛΕΙΟ ΠΥΡΓΟΥ ΔΙΡΟΥ,22.385014,36.622996
1966,ΔΗΜΟΤΙΚΟ ΣΧΟΛΕΙΟ ΔΑΦΝΙΟΥ ΛΑΚΩΝΙΚΗΣ,22.540338,36.925579
1967,ΔΗΜΟΤΙΚΟ ΣΧΟΛΕΙΟ ΒΟΥΤΙΑΝΩΝ ΛΑΚΕΔΑΙΜΟΝΟΣ,22.440438,37.150833
1968,ΔΗΜΟΤΙΚΟ ΣΧΟΛΕΙΟ ΓΚΟΡΙΤΣΑΣ ΛΑΚΕΔΑΙΜΟΝΟΣ,22.565786,37.026274
1969,ΔΗΜΟΤΙΚΟ ΣΧΟΛΕΙΟ ΓΕΡΑΚΙΟΥ ΛΑΚΕΔΑΙΜΟΝΟΣ,22.710824,36.989213
1970,ΔΗΜΟΤΙΚΟ ΣΧΟΛΕΙΟ ΑΛΩΝΩΝ ΦΛΩΡΙΝΑΣ,21.303615,40.774519
1971,ΔΗΜΟΤΙΚΟ ΣΧΟΛΕΙΟ ΠΟΛΥΠΟΤΑΜΟΥ ΦΛΩΡΙΝΑΣ,21.365716,40.717837
1972,ΔΗΜΟΤΙΚΟ ΣΧΟΛΕΙΟ ΚΕΦΑΛΑ ΛΑΚΕΔΑΙΜΟΝΟΣ,22.522699,37.031554
1973,ΔΗΜΟΤΙΚΟ ΣΧΟΛΕΙΟ ΛΕΟΝΤΑΡΙΟΥ ΜΕΓΑΛΟΠΟΛΗΣ,22.145228,37.320599
1974,ΔΗΜΟΤΙΚΟ ΣΧΟΛΕΙΟ ΒΡΟΝΤΑΜΑ ΛΑΚΩΝΙΚΗΣ,,
1975,ΔΗΜΟΤΙΚΟ ΣΧΟΛΕΙΟ ΚΡΟΚΕΩΝ ΛΑΚΩΝΙΚΗΣ,22.550555,36.883283
1976,ΔΗΜΟΤΙΚΟ ΣΧΟΛΕΙΟ ΠΕΡΙΣΤΕΡΙΟΥ ΛΑΚΩΝΙΚΗΣ,,
1977,ΔΗΜΟΤΙΚΟ ΣΧΟΛΕΙΟ ΛΕΗΜΟΝΟΣ ΛΑΚΩΝΙΚΗΣ,,
1978,ΔΗΜΟΤΙΚΟ ΣΧΟΛΕΙΟ ΠΕΤΡΙΝΑΣ,22.49532,36.840233
1979,ΔΗΜΟΤΙΚΟ ΣΧΟΛΕΙΟ ΜΑΥΡΟΒΟΥΝΙΟΥ,22.538174,36.736262
1980,ΔΗΜΟΤΙΚΟ ΣΧΟΛΕΙΟ ΕΛΟΥΣ,22.698885,36.831236
1981,ΔΗΜΟΤΙΚΟ ΣΧΟΛΕΙΟ ΠΛΑΤΑΝΙΩΝ,,
1982,ΔΗΜΟΤΙΚΟ ΣΧΟΛΕΙΟ ΣΚΟΥΡΑΣ ΛΑΚΕΔΑΙΜΟΝΟΣ,22.491271,37.011145
1983,ΔΗΜΟΤΙΚΟ ΣΧΟΛΕΙΟ ΒΑΣΑΡΑ ΛΑΚΕΔΑΙΜΟΝΟΣ,22.510302,37.166368
1984,ΔΗΜΟΤΙΚΟ ΣΧΟΛΕΙΟ ΑΣΠΡΟΧΩΜΑΤΟΣ,22.075929,37.046426
1985,ΔΗΜΟΤΙΚΟ ΣΧΟΛΕΙΟ ΕΛΙΚΑΣ ΜΟΝ ΜΟΛΑΩΝ,22.92501,36.619552
1986,ΔΗΜΟΤΙΚΟ ΣΧΟΛΕΙΟ ΒΛΑΧΙΩΤΗ ΛΑΚΩΝΙΚΗΣ,22.711463,36.860145
1987,ΔΗΜΟΤΙΚΟ ΣΧΟΛΕΙΟ ΛΙΘΙΝΩΝ ΣΗΤΕΙΑΣ,26.046937,35.074933
1988,ΔΗΜΟΤΙΚΟ ΣΧΟΛΕΙΟ ΑΓΙΩΝ ΑΝΑΡΓΥΡΩΝ ΛΑΚΕΔΑΙΜΟΝ,22.624082,37.024852
1989,4ο ΔΗΜΟΤΙΚΟ ΣΧΟΛΕΙΟ ΣΠΑΡΤΗΣ,22.439432,37.068624
1990,ΔΗΜΟΤΙΚΟ ΣΧΟΛΕΙΟ ΜΥΡΤΟΥ ΙΕΡΑΠΕΤΡΑΣ,25.585454,35.003772
1991,ΔΗΜΟΤΙΚΟ ΣΧΟΛΕΙΟ ΒΟΡΔΟΝΙΑΣ ΛΑΚΕΔΑΙΜΟΝΟΣ,22.336134,37.142226
1992,3ο ΔΗΜΟΤΙΚΟ ΣΧΟΛΕΙΟ ΓΑΡΓΑΛΙΑΝΩΝ,21.639361,37.066296
1993,ΔΗΜΟΤΙΚΟ ΣΧΟΛΕΙΟ ΛΕΥΚΟΧΩΡΑΣ,21.935001,37.052492
1994,5ο ΔΗΜΟΤΙΚΟ ΣΧΟΛΕΙΟ ΣΠΑΡΤΗΣ,,
1995,ΔΗΜΟΤΙΚΟ ΣΧΟΛΕΙΟ ΠΛΩΡΑΣ,,
1996,6ο ΔΗΜΟΤΙΚΟ ΣΧΟΛΕΙΟ ΣΠΑΡΤΗΣ,,
1997,ΔΗΜΟΤΙΚΟ ΣΧΟΛΕΙΟ ΑΡΒΗΣ,,
1998,ΔΗΜΟΤΙΚΟ ΣΧΟΛΕΙΟ ΓΕΩΡΓΙΤΣΙΟΥ ΛΑΚΕΔΑΙΜΟΝΟΣ,22.276723,37.188683
1999,ΔΗΜΟΤΙΚΟ ΣΧΟΛΕΙΟ ΡΩΜΑΝΟΥ ΠΥΛΙΑΣ,21.665714,36.992648
2000,ΔΗΜΟΤΙΚΟ ΣΧΟΛΕΙΟ ΣΚΟΤΕΙΝΗΣ,22.440094,37.786261
2001,ΔΗΜΟΤΙΚΟ ΣΧΟΛΕΙΟ ΚΑΡΥΩΝ ΛΑΚΕΔΑΙΜΟΝΟΣ,,
2002,ΔΗΜΟΤΙΚΟ ΣΧΟΛΕΙΟ ΤΡΙΠΟΛΗΣ ΕΙΔΙΚΟ,,
2003,ΔΗΜΟΤΙΚΟ ΣΧΟΛΕΙΟ ΚΟΡΩΝΗΣ ΠΥΛΙΑΣ,21.95265,36.792635
2004,ΔΗΜΟΤΙΚΟ ΣΧΟΛΕΙΟ ΘΟΥΡΙΑΣ,22.051346,37.083005
2005,ΔΗΜΟΤΙΚΟ ΣΧΟΛΕΙΟ ΔΑΙΜΟΝΙΑΣ ΜΟΛΑΩΝ,22.902289,36.649325
2006,ΔΗΜΟΤΙΚΟ ΣΧΟΛΕΙΟ ΜΕΡΟΠΗΣ,22.003143,37.240083
2007,2ο ΔΗΜΟΤΙΚΟ ΣΧΟΛΕΙΟ ΓΑΡΓΑΛΙΑΝΩΝ,21.639508,37.066347
2008,ΔΗΜΟΤΙΚΟ ΣΧΟΛΕΙΟ ΜΑΡΑΘΟΠΟΛΗΣ,21.581696,37.056755
2009,ΔΗΜΟΤΙΚΟ ΣΧΟΛΕΙΟ ΖΑΡΑΚΩΝ,,
2010,ΔΗΜΟΤΙΚΟ ΣΧΟΛΕΙΟ ΟΚΤΩΝΙΑΣ,,
2011,1ο ΔΗΜΟΤΙΚΟ ΣΧΟΛΕΙΟ ΓΑΡΓΑΛΙΑΝΩΝ,21.639451,37.066145
2012,1ο ΔΗΜΟΤΙΚΟ ΣΧΟΛΕΙΟ ΧΩΡΑΣ ΠΥΛΙΑΣ,21.723184,37.053383
2013,ΔΗΜΟΤΙΚΟ ΣΧΟΛΕΙΟ ΒΑΛΥΡΑΣ,21.982381,37.164855
2014,ΔΗΜΟΤΙΚΟ ΣΧΟΛΕΙΟ ΒΕΛΙΚΑΣ,21.9336,37.005305
2015,3ο ΔΗΜΟΤΙΚΟ ΣΧΟΛΕΙΟ ΚΥΠΑΡΙΣΣΙΑΣ,21.663811,37.249519
2016,ΔΗΜΟΤΙΚΟ ΣΧΟΛΕΙΟ ΚΑΡΤΕΡΟΛΙΟΥ,21.988313,37.074897
2017,ΔΗΜΟΤΙΚΟ ΣΧΟΛΕΙΟ ΠΕΡΔΙΚΟΝΕΡΙΟΥ,21.67842,37.180248
2018,2ο ΔΗΜΟΤΙΚΟ ΣΧΟΛΕΙΟ ΚΥΠΑΡΙΣΣΙΑΣ,21.663842,37.249544
2019,ΔΗΜΟΤΙΚΟ ΣΧΟΛΕΙΟ ΤΡΑΧΗΛΙΟΥ ΕΥΒΟΙΑΣ,24.008071,38.508593
2020,ΔΗΜΟΤΙΚΟ ΣΧΟΛΕΙΟ ΜΑΝΕΣΙ,21.89883,37.083851
2021,ΔΗΜΟΤΙΚΟ ΣΧΟΛΕΙΟ ΟΞΥΛΙΝΘΟΥ ΕΥΒΟΙΑΣ,,
2022,ΔΗΜΟΤΙΚΟ ΣΧΟΛΕΙΟ ΜΕΘΩΝΗΣ ΠΥΛΙΑΣ,21.705615,36.818189
2023,ΔΗΜΟΤΙΚΟ ΣΧΟΛΕΙΟ ΛΟΓΓΑΣ ΠΥΛΙΑΣ,21.905606,36.870074
2024,ΔΗΜΟΤΙΚΟ ΣΧΟΛΕΙΟ ΣΤΕΡΝΑΣ,21.875555,37.081404
2025,ΔΗΜΟΤΙΚΟ ΣΧΟΛΕΙΟ ΣΤΡΕΦΙΟΥ,21.889027,37.053049
2026,ΔΗΜΟΤΙΚΟ ΣΧΟΛΕΙΟ ΑΣΩΠΟΥ ΜΟΛΑΩΝ,22.855937,36.729274
2027,ΔΗΜΟΤΙΚΟ ΣΧΟΛΕΙΟ ΑΠΙΔΕΑΣ ΜΟΛΑΩΝ,22.794821,36.881988
2028,ΔΗΜΟΤΙΚΟ ΣΧΟΛΕΙΟ ΑΓΙΩΝ ΑΠΟΣΤΟΛΩΝ ΠΕΤΡΙΩΝ,,
2029,ΔΗΜΟΤΙΚΟ ΣΧΟΛΕΙΟ ΑΓΙΟΥ ΙΩΑΝΝΗ ΜΟΝΕΜΒΑΣΙΑΣ,22.998746,36.741503
2030,ΔΗΜΟΤΙΚΟ ΣΧΟΛΕΙΟ ΑΓΙΟΥ ΝΙΚΟΛΑΟΥ ΒΟΙΩΝ ΜΟΛΑΩΝ,23.105723,36.475083
2031,ΔΗΜΟΤΙΚΟ ΣΧΟΛΕΙΟ ΣΤΥΡΩΝ,24.241228,38.154856
2032,ΔΗΜΟΤΙΚΟ ΣΧΟΛΕΙΟ ΓΕΡΟΛΙΜΕΝΑ,22.405449,36.478144
2033,ΔΗΜΟΤΙΚΟ ΣΧΟΛΕΙΟ ΣΕΛΛΑΣΙΑΣ ΛΑΚΕΔΑΙΜΟΝΟΣ,22.417822,37.165078
2034,ΔΗΜΟΤΙΚΟ ΣΧΟΛΕΙΟ ΝΙΑΤΩΝ ΜΟΛΑΩΝ,22.846306,36.897961
2035,ΔΗΜΟΤΙΚΟ ΣΧΟΛΕΙΟ ΕΛΛΗΝΙΚΟΥ ΜΟΝ ΜΟΛΑΩΝ,22.984862,36.610279
2036,ΔΗΜΟΤΙΚΟ ΣΧΟΛΕΙΟ ΣΥΚΕΑΣ ΜΟΛΑΩΝ,22.944856,36.763864
2037,ΔΗΜΟΤΙΚΟ ΣΧΟΛΕΙΟ ΚΟΤΡΩΝΟΣ,22.483802,36.621079
2038,ΔΗΜΟΤΙΚΟ ΣΧΟΛΕΙΟ ΚΟΣΚΙΝΩΝ,,
2039,ΔΗΜΟΤΙΚΟ ΣΧΟΛΕΙΟ ΠΑΠΑΔΙΑΝΙΚΩΝ ΜΟΛΑΩΝ,22.864007,36.71316
2040,ΔΗΜΟΤΙΚΟ ΣΧΟΛΕΙΟ ΚΑΤΩ ΓΛΥΚΟΒΡΥΣΗΣ ΜΟΛΑΩΝ,22.77815,36.824727
2041,ΔΗΜΟΤΙΚΟ ΣΧΟΛΕΙΟ ΕΛΑΙΑΣ ΜΟΛΑΩΝ,22.804498,36.753774
2042,ΔΗΜΟΤΙΚΟ ΣΧΟΛΕΙΟ ΚΑΡΝΑΣΙΟΥ,21.990128,37.317713
2043,ΔΗΜΟΤΙΚΟ ΣΧΟΛΕΙΟ ΚΑΛΛΙΡΡΟΗΣ,21.931388,37.264618
2044,ΔΗΜΟΤΙΚΟ ΣΧΟΛΕΙΟ ΒΕΛΙΩΝ ΜΟΛΑΩΝ,22.950815,36.704293
2045,ΔΗΜΟΤΙΚΟ ΣΧΟΛΕΙΟ ΒΙΓΚΛΑΦΙΩΝ ΒΟΙΩΝ ΜΟΛΑΩΝ,,
2046,ΔΗΜΟΤΙΚΟ ΣΧΟΛΕΙΟ ΛΑΧΑΝΑΔΑΣ ΠΥΛΙΑΣ,21.815633,36.822551
2047,ΔΗΜΟΤΙΚΟ ΣΧΟΛΕΙΟ ΣΚΑΛΑΣ ΜΕΣΣΗΝΗΣ,22.006463,37.189138
2048,ΔΗΜΟΤΙΚΟ ΣΧΟΛΕΙΟ ΣΥΚΙΩΝ ΕΥΒΟΙΑΣ,,
2049,21ο ΔΗΜΟΤΙΚΟ ΣΧΟΛΕΙΟ ΚΑΛΑΜΑΤΑΣ,22.11265,37.032287
2050,ΔΗΜΟΤΙΚΟ ΣΧΟΛΕΙΟ ΠΕΤΑΛΙΔΙΟΥ ΠΥΛΙΑΣ,21.888265,36.963684
2051,3ο ΔΗΜΟΤΙΚΟ ΣΧΟΛΕΙΟ ΦΙΛΙΑΤΡΩΝ,21.587996,37.156513
2052,ΔΗΜΟΤΙΚΟ ΣΧΟΛΕΙΟ ΑΛΜΥΡΟΠΟΤΑΜΟΥ,24.190774,38.269487
2053,ΔΗΜΟΤΙΚΟ ΣΧΟΛΕΙΟ ΣΤΑΘΜΟΥ ΚΑΛΟΝΕΡΟΥ,,
2054,1ο ΔΗΜΟΤΙΚΟ ΣΧΟΛΕΙΟ ΚΥΠΑΡΙΣΣΙΑΣ,21.66383,37.249541
2055,ΔΗΜΟΤΙΚΟ ΣΧΟΛΕΙΟ ΔΩΡΙΟΥ,21.857472,37.286036
2056,ΔΗΜΟΤΙΚΟ ΣΧΟΛΕΙΟ ΝΕΩΝ ΣΤΥΡΩΝ,24.20906,38.178205
2057,1ο ΔΗΜΟΤΙΚΟ ΣΧΟΛΕΙΟ ΦΙΛΙΑΤΡΩΝ,21.587995,37.156513
2058,2ο ΔΗΜΟΤΙΚΟ ΣΧΟΛΕΙΟ ΦΙΛΙΑΤΡΩΝ,21.587996,37.156513
2059,2ο ΔΗΜΟΤΙΚΟ ΣΧΟΛΕΙΟ ΠΥΛΟΥ,21.699739,36.910596
2060,ΔΗΜΟΤΙΚΟ ΦΙΛΙΑΤΡΩΝ ΜΕΣΣΗΝΙΑΣ ΕΙΔΙΚΟ,,
2061,ΔΗΜΟΤΙΚΟ ΣΧΟΛΕΙΟ ΚΟΠΑΝΑΚΙΟΥ,21.817169,37.287155
2062,ΔΗΜΟΤΙΚΟ ΣΧΟΛΕΙΟ ΣΚΕΠΑΣΤΗΣ,,
2063,ΔΗΜΟΤΙΚΟ ΣΧΟΛΕΙΟ ΠΗΛΙΟΥ ΕΥΒΟΙΑΣ,23.583921,38.75307
2064,ΔΗΜΟΤΙΚΟ ΣΧΟΛΕΙΟ ΑΜΠΕΛΟΦΥΤΟΥ,21.696401,37.053221
2065,ΔΗΜΟΤΙΚΟ ΣΧΟΛΕΙΟ ΒΙΤΑΛΩΝ ΕΥΒΟΙΑΣ,,
2066,ΔΗΜΟΤΙΚΟ ΣΧΟΛΕΙΟ ΔΙΟΔΙΩΝ,21.865922,37.077722
2067,ΔΗΜΟΤΙΚΟ ΣΧΟΛΕΙΟ ΚΕΡΑΣΕΑΣ ΙΣΤΙΑΙΑΣ,23.327689,38.909054
2068,ΔΗΜΟΤΙΚΟ ΣΧΟΛΕΙΟ ΠΥΡΓΟΥ,21.694666,37.072415
2069,ΔΗΜΟΤΙΚΟ ΣΧΟΛΕΙΟ ΚΟΥΡΚΟΥΛΩΝ ΙΣΤΙΑΙΑΣ,23.344099,38.832217
2070,ΔΙΕΥΘΥΝΣΗ Δ.Ε. ΑΡΚΑΔΙΑΣ,22.374306,37.460181
2071,ΔΙΕΥΘΥΝΣΗ Δ.Ε. ΜΕΣΣΗΝΙΑΣ,22.122557,37.048237
2072,ΔΙΕΥΘΥΝΣΗ Δ.Ε. ΛΑΚΩΝΙΑΣ,22.437615,37.07001
2073,1ο ΕΡΓΑΣΤΗΡΙΑΚΟ ΚΕΝΤΡΟ ΦΥΣΙΚΩΝ ΕΠΙΣΤΗΜΩΝ ΜΕΣΣΗΝΙΑΣ (ΚΑΛΑΜΑΤΑ),22.122557,37.048237
2074,1ο ΕΡΓΑΣΤΗΡΙΑΚΟ ΚΕΝΤΡΟ ΦΥΣΙΚΩΝ ΕΠΙΣΤΗΜΩΝ ΛΑΚΩΝΙΑΣ (ΣΠΑΡΤΗ),22.431821,37.060834
2075,1ο ΕΡΓΑΣΤΗΡΙΑΚΟ ΚΕΝΤΡΟ ΦΥΣΙΚΩΝ ΕΠΙΣΤΗΜΩΝ ΑΡΚΑΔΙΑΣ (ΤΡΙΠΟΛΗ),,
2076,ΚΕΣΥΠ ΑΡΚΑΔΙΑΣ,22.373658,37.464811
2077,ΚΕΣΥΠ ΜΕΣΣΗΝΙΑΣ,22.111401,37.040852
2078,ΚΕΣΥΠ ΛΑΚΩΝΙΑΣ,22.430753,37.065484
2079,ΓΡΑΦΕΙΟ Δ.Ε. ΜΕΣΣΗΝΙΑΣ,21.664713,37.249478
2080,ΓΡΑΦΕΙΟ Δ.Ε. ΑΡΚΑΔΙΑΣ,22.139071,37.401376
2081,ΓΡΑΦΕΙΟ ΤΕΕ ΜΕΣΣΗΝΙΑΣ,22.122557,37.048237
2082,ΙΕΚ ΦΙΛΙΑΤΡΩΝ (ΠΑΡΑΡΤ. ΚΑΛΑΜΑΤΑΣ),,
2083,ΙΕΚ ΣΠΑΡΤΗΣ,,
2084,ΙΕΚ ΜΕΓΑΛΟΠΟΛΗΣ,,
2085,ΙΕΚ ΚΑΛΑΜΑΤΑΣ,,
2086,ΙΕΚ ΑΣΤΡΟΥΣ ΚΥΝΟΥΡΙΑΣ,22.721756,37.404697
2087,ΙΕΚ ΤΡΙΠΟΛΗΣ,,
2088,ΔΙΕΥΘΥΝΣΗ Π.Ε. ΜΕΣΣΗΝΙΑΣ,,
2089,ΔΙΕΥΘΥΝΣΗ Π.Ε. ΑΡΚΑΔΙΑΣ,,
2090,ΔΙΕΥΘΥΝΣΗ Π.Ε. ΛΑΚΩΝΙΑΣ,,
